{
  "DATA": [
    {
      "line_num": "01호선",
      "station_nm_chn": "东豆川中央",
      "station_cd": "1913",
      "station_nm_jpn": "トンドゥチョン・チュンアン",
      "station_nm_eng": "Dongducheonjungang",
      "station_nm": "동두천중앙",
      "fr_code": "103",
      "lat": 37.901885,
      "lng": 127.056482
    },
    {
      "line_num": "01호선",
      "station_nm_chn": "儀王",
      "station_cd": "1710",
      "station_nm_jpn": "ウィワン",
      "station_nm_eng": "Uiwang",
      "station_nm": "의왕",
      "fr_code": "P152",
      "lat": 37.320852,
      "lng": 126.948217
    },
    {
      "line_num": "01호선",
      "station_nm_chn": "衿井",
      "station_cd": "1708",
      "station_nm_jpn": "クムジョン",
      "station_nm_eng": "Geumjeong",
      "station_nm": "금정",
      "fr_code": "P149",
      "lat": 37.372221,
      "lng": 126.943429
    },
    {
      "line_num": "01호선",
      "station_nm_chn": "松内",
      "station_cd": "1805",
      "station_nm_jpn": "ソンネ",
      "station_nm_eng": "Songnae",
      "station_nm": "송내",
      "fr_code": "150",
      "lat": 37.4876,
      "lng": 126.753664
    },
    {
      "line_num": "01호선",
      "station_nm_chn": "富川",
      "station_cd": "1804",
      "station_nm_jpn": "プチョン",
      "station_nm_eng": "Bucheon",
      "station_nm": "부천",
      "fr_code": "148",
      "lat": 37.48405,
      "lng": 126.782686
    },
    {
      "line_num": "01호선",
      "station_nm_chn": "驿谷",
      "station_cd": "1803",
      "station_nm_jpn": "ヨッコク",
      "station_nm_eng": "Yeokgok",
      "station_nm": "역곡",
      "fr_code": "146",
      "lat": 37.485178,
      "lng": 126.811502
    },
    {
      "line_num": "01호선",
      "station_nm_chn": "西东滩",
      "station_cd": "1749",
      "station_nm_jpn": "ソドンタン",
      "station_nm_eng": "Seodongtan",
      "station_nm": "서동탄",
      "fr_code": "P157-1",
      "lat": 37.195504,
      "lng": 127.051672
    },
    {
      "line_num": "01호선",
      "station_nm_chn": "堂井",
      "station_cd": "1729",
      "station_nm_jpn": "タンジョン",
      "station_nm_eng": "Dangjeong",
      "station_nm": "당정",
      "fr_code": "P151",
      "lat": 37.344285,
      "lng": 126.948345
    },
    {
      "line_num": "01호선",
      "station_nm_chn": "光明",
      "station_cd": "1750",
      "station_nm_jpn": "クァンミョン",
      "station_nm_eng": "Gwangmyeong",
      "station_nm": "광명",
      "fr_code": "P144-1",
      "lat": 37.416182,
      "lng": 126.884466
    },
    {
      "line_num": "01호선",
      "station_nm_chn": "平泽",
      "station_cd": "1724",
      "station_nm_jpn": "ピョンテク",
      "station_nm_eng": "Pyeongtaek",
      "station_nm": "평택",
      "fr_code": "P165",
      "lat": 36.990726,
      "lng": 127.085159
    },
    {
      "line_num": "01호선",
      "station_nm_chn": "西井里",
      "station_cd": "1722",
      "station_nm_jpn": "ソジョンニ",
      "station_nm_eng": "Seojeong-ri",
      "station_nm": "서정리",
      "fr_code": "P163",
      "lat": 37.056496,
      "lng": 127.052819
    },
    {
      "line_num": "01호선",
      "station_nm_chn": "松炭",
      "station_cd": "1721",
      "station_nm_jpn": "ソンタン",
      "station_nm_eng": "Songtan",
      "station_nm": "송탄",
      "fr_code": "P162",
      "lat": 37.075696,
      "lng": 127.054301
    },
    {
      "line_num": "01호선",
      "station_nm_chn": "乌山",
      "station_cd": "1719",
      "station_nm_jpn": "オサン",
      "station_nm_eng": "Osan",
      "station_nm": "오산",
      "fr_code": "P160",
      "lat": 37.145885,
      "lng": 127.06672
    },
    {
      "line_num": "01호선",
      "station_nm_chn": "乌山大学",
      "station_cd": "1718",
      "station_nm_jpn": "オサンデ",
      "station_nm_eng": "Osan College",
      "station_nm": "오산대",
      "fr_code": "P159",
      "lat": 37.168953,
      "lng": 127.063197
    },
    {
      "line_num": "01호선",
      "station_nm_chn": "洗马",
      "station_cd": "1717",
      "station_nm_jpn": "セマ",
      "station_nm_eng": "Sema",
      "station_nm": "세마",
      "fr_code": "P158",
      "lat": 37.187533,
      "lng": 127.04318
    },
    {
      "line_num": "01호선",
      "station_nm_chn": "饼店",
      "station_cd": "1716",
      "station_nm_jpn": "ピョンチョム",
      "station_nm_eng": "Byeongjeom",
      "station_nm": "병점",
      "fr_code": "P157",
      "lat": 37.207503,
      "lng": 127.032731
    },
    {
      "line_num": "01호선",
      "station_nm_chn": "东庙",
      "station_cd": "0159",
      "station_nm_jpn": "トンミョアプ",
      "station_nm_eng": "Dongmyo",
      "station_nm": "동묘앞",
      "fr_code": "127",
      "lat": 37.572627,
      "lng": 127.016429
    },
    {
      "line_num": "01호선",
      "station_nm_chn": "南营",
      "station_cd": "1002",
      "station_nm_jpn": "ナミョン",
      "station_nm_eng": "Namyeong",
      "station_nm": "남영",
      "fr_code": "134",
      "lat": 37.541021,
      "lng": 126.9713
    },
    {
      "line_num": "01호선",
      "station_nm_chn": "龙山",
      "station_cd": "1003",
      "station_nm_jpn": "ヨンサン",
      "station_nm_eng": "Yongsan",
      "station_nm": "용산",
      "fr_code": "135",
      "lat": 37.529849,
      "lng": 126.964561
    },
    {
      "line_num": "01호선",
      "station_nm_chn": "鹭梁津",
      "station_cd": "1004",
      "station_nm_jpn": "ノリャンジン",
      "station_nm_eng": "Noryangjin",
      "station_nm": "노량진",
      "fr_code": "136",
      "lat": 37.514219,
      "lng": 126.942454
    },
    {
      "line_num": "01호선",
      "station_nm_chn": "大方",
      "station_cd": "1005",
      "station_nm_jpn": "テバン",
      "station_nm_eng": "Daebang",
      "station_nm": "대방",
      "fr_code": "137",
      "lat": 37.513342,
      "lng": 126.926382
    },
    {
      "line_num": "01호선",
      "station_nm_chn": "细柳",
      "station_cd": "1715",
      "station_nm_jpn": "セリュ",
      "station_nm_eng": "Seryu",
      "station_nm": "세류",
      "fr_code": "P156",
      "lat": 37.245025,
      "lng": 127.013222
    },
    {
      "line_num": "01호선",
      "station_nm_chn": "秃山",
      "station_cd": "1714",
      "station_nm_jpn": "トッサン",
      "station_nm_eng": "Doksan",
      "station_nm": "독산",
      "fr_code": "P143",
      "lat": 37.466613,
      "lng": 126.889249
    },
    {
      "line_num": "01호선",
      "station_nm_chn": "凤鸣",
      "station_cd": "1401",
      "station_nm_jpn": "ポンミョン",
      "station_nm_eng": "Bongmyeong",
      "station_nm": "봉명",
      "fr_code": "P170",
      "lat": 36.801215,
      "lng": 127.135763
    },
    {
      "line_num": "01호선",
      "station_nm_chn": "牙山",
      "station_cd": "1403",
      "station_nm_jpn": "アサン",
      "station_nm_eng": "Asan",
      "station_nm": "아산",
      "fr_code": "P172",
      "lat": 36.792053,
      "lng": 127.104361
    },
    {
      "line_num": "01호선",
      "station_nm_chn": "排芳",
      "station_cd": "1405",
      "station_nm_jpn": "ペバン",
      "station_nm_eng": "Baebang",
      "station_nm": "배방",
      "fr_code": "P174",
      "lat": 36.777629,
      "lng": 127.052991
    },
    {
      "line_num": "01호선",
      "station_nm_chn": "清凉里",
      "station_cd": "0158",
      "station_nm_jpn": "チョンニャンニ",
      "station_nm_eng": "Cheongnyangni",
      "station_nm": "청량리",
      "fr_code": "124",
      "lat": 37.580178,
      "lng": 127.046835
    },
    {
      "line_num": "01호선",
      "station_nm_chn": "永登浦",
      "station_cd": "1006",
      "station_nm_jpn": "ヨンドゥンポ",
      "station_nm_eng": "Yeongdeungpo",
      "station_nm": "영등포",
      "fr_code": "139",
      "lat": 37.515504,
      "lng": 126.907628
    },
    {
      "line_num": "01호선",
      "station_nm_chn": "新道林",
      "station_cd": "1007",
      "station_nm_jpn": "シンドリム",
      "station_nm_eng": "Sindorim",
      "station_nm": "신도림",
      "fr_code": "140",
      "lat": 37.508725,
      "lng": 126.891295
    },
    {
      "line_num": "01호선",
      "station_nm_chn": "韩国外国语大学",
      "station_cd": "1016",
      "station_nm_jpn": "ウェデアプ",
      "station_nm_eng": "Hankuk Univ. of Foreign Studies",
      "station_nm": "외대앞",
      "fr_code": "122",
      "lat": 37.596073,
      "lng": 127.063549
    },
    {
      "line_num": "01호선",
      "station_nm_chn": "新里门",
      "station_cd": "1017",
      "station_nm_jpn": "シニムン",
      "station_nm_eng": "Sinimun",
      "station_nm": "신이문",
      "fr_code": "121",
      "lat": 37.601854,
      "lng": 127.067325
    },
    {
      "line_num": "01호선",
      "station_nm_chn": "温阳温泉",
      "station_cd": "1407",
      "station_nm_jpn": "オニャンオンチョン",
      "station_nm_eng": "Onyang oncheon",
      "station_nm": "온양온천",
      "fr_code": "P176",
      "lat": 36.780483,
      "lng": 127.003249
    },
    {
      "line_num": "01호선",
      "station_nm_chn": "新昌",
      "station_cd": "1408",
      "station_nm_jpn": "シンチャン",
      "station_nm_eng": "Sinchang",
      "station_nm": "신창",
      "fr_code": "P177",
      "lat": 36.769502,
      "lng": 126.951108
    },
    {
      "line_num": "01호선",
      "station_nm_chn": "祭基洞",
      "station_cd": "0157",
      "station_nm_jpn": "チェギドン",
      "station_nm_eng": "Jegi-dong",
      "station_nm": "제기동",
      "fr_code": "125",
      "lat": 37.578103,
      "lng": 127.034893
    },
    {
      "line_num": "01호선",
      "station_nm_chn": "新设洞",
      "station_cd": "0156",
      "station_nm_jpn": "シンソルトン",
      "station_nm_eng": "Sinseol-dong",
      "station_nm": "신설동",
      "fr_code": "126",
      "lat": 37.575297,
      "lng": 127.025087
    },
    {
      "line_num": "01호선",
      "station_nm_chn": "东大门",
      "station_cd": "0155",
      "station_nm_jpn": "トンデムン",
      "station_nm_eng": "Dongdaemun",
      "station_nm": "동대문",
      "fr_code": "128",
      "lat": 37.57142,
      "lng": 127.009745
    },
    {
      "line_num": "01호선",
      "station_nm_chn": "道禾",
      "station_cd": "1823",
      "station_nm_jpn": "トファ",
      "station_nm_eng": "Dohwa",
      "station_nm": "도화",
      "fr_code": "157",
      "lat": 37.46607,
      "lng": 126.668672
    },
    {
      "line_num": "01호선",
      "station_nm_chn": "钟路五街",
      "station_cd": "0154",
      "station_nm_jpn": "チョンノオガ",
      "station_nm_eng": "Jongno 5(o)-ga",
      "station_nm": "종로5가",
      "fr_code": "129",
      "lat": 37.570926,
      "lng": 127.001849
    },
    {
      "line_num": "01호선",
      "station_nm_chn": "钟路三街",
      "station_cd": "0153",
      "station_nm_jpn": "チョンノサムガ",
      "station_nm_eng": "Jongno 3(sam)-ga",
      "station_nm": "종로3가",
      "fr_code": "130",
      "lat": 37.571607,
      "lng": 126.991806
    },
    {
      "line_num": "01호선",
      "station_nm_chn": "中洞",
      "station_cd": "1822",
      "station_nm_jpn": "チュンドン",
      "station_nm_eng": "Jung-dong",
      "station_nm": "중동",
      "fr_code": "149",
      "lat": 37.486562,
      "lng": 126.764843
    },
    {
      "line_num": "01호선",
      "station_nm_chn": "温水",
      "station_cd": "1821",
      "station_nm_jpn": "オンス",
      "station_nm_eng": "Onsu",
      "station_nm": "온수",
      "fr_code": "145",
      "lat": 37.492258,
      "lng": 126.823388
    },
    {
      "line_num": "01호선",
      "station_nm_chn": "桃源",
      "station_cd": "1817",
      "station_nm_jpn": "トウォン",
      "station_nm_eng": "Dowon",
      "station_nm": "도원",
      "fr_code": "159",
      "lat": 37.468446,
      "lng": 126.642706
    },
    {
      "line_num": "01호선",
      "station_nm_chn": "间石",
      "station_cd": "1816",
      "station_nm_jpn": "カンソク",
      "station_nm_eng": "Ganseok",
      "station_nm": "간석",
      "fr_code": "155",
      "lat": 37.464737,
      "lng": 126.694181
    },
    {
      "line_num": "01호선",
      "station_nm_chn": "富开",
      "station_cd": "1815",
      "station_nm_jpn": "プゲ",
      "station_nm_eng": "Bugae",
      "station_nm": "부개",
      "fr_code": "151",
      "lat": 37.488418,
      "lng": 126.74109
    },
    {
      "line_num": "01호선",
      "station_nm_chn": "素砂",
      "station_cd": "1814",
      "station_nm_jpn": "ソサ",
      "station_nm_eng": "Sosa",
      "station_nm": "소사",
      "fr_code": "147",
      "lat": 37.482753,
      "lng": 126.79544
    },
    {
      "line_num": "01호선",
      "station_nm_chn": "九一",
      "station_cd": "1813",
      "station_nm_jpn": "クイル",
      "station_nm_eng": "Guil",
      "station_nm": "구일",
      "fr_code": "142",
      "lat": 37.496756,
      "lng": 126.870793
    },
    {
      "line_num": "01호선",
      "station_nm_chn": "仁川",
      "station_cd": "1812",
      "station_nm_jpn": "インチョン",
      "station_nm_eng": "Incheon",
      "station_nm": "인천",
      "fr_code": "161",
      "lat": 37.476691,
      "lng": 126.616936
    },
    {
      "line_num": "01호선",
      "station_nm_chn": "东仁川",
      "station_cd": "1811",
      "station_nm_jpn": "トンインチョン",
      "station_nm_eng": "Dongincheon",
      "station_nm": "동인천",
      "fr_code": "160",
      "lat": 37.475276,
      "lng": 126.632802
    },
    {
      "line_num": "01호선",
      "station_nm_chn": "济物浦",
      "station_cd": "1810",
      "station_nm_jpn": "チェムルポ",
      "station_nm_eng": "Jemulpo",
      "station_nm": "제물포",
      "fr_code": "158",
      "lat": 37.466769,
      "lng": 126.656666
    },
    {
      "line_num": "01호선",
      "station_nm_chn": "朱安",
      "station_cd": "1809",
      "station_nm_jpn": "チュアン",
      "station_nm_eng": "Juan",
      "station_nm": "주안",
      "fr_code": "156",
      "lat": 37.464941,
      "lng": 126.679923
    },
    {
      "line_num": "01호선",
      "station_nm_chn": "铜岩",
      "station_cd": "1808",
      "station_nm_jpn": "トンアム",
      "station_nm_eng": "Dongam",
      "station_nm": "동암",
      "fr_code": "154",
      "lat": 37.471408,
      "lng": 126.702896
    },
    {
      "line_num": "01호선",
      "station_nm_chn": "白云",
      "station_cd": "1807",
      "station_nm_jpn": "ペグン",
      "station_nm_eng": "Baegun",
      "station_nm": "백운",
      "fr_code": "153",
      "lat": 37.483664,
      "lng": 126.707704
    },
    {
      "line_num": "01호선",
      "station_nm_chn": "富平",
      "station_cd": "1806",
      "station_nm_jpn": "プピョン",
      "station_nm_eng": "Bupyeong",
      "station_nm": "부평",
      "fr_code": "152",
      "lat": 37.489493,
      "lng": 126.724805
    },
    {
      "line_num": "01호선",
      "station_nm_chn": "梧柳洞",
      "station_cd": "1802",
      "station_nm_jpn": "オリュドン",
      "station_nm_eng": "Oryu-dong",
      "station_nm": "오류동",
      "fr_code": "144",
      "lat": 37.494526,
      "lng": 126.845365
    },
    {
      "line_num": "01호선",
      "station_nm_chn": "开峰",
      "station_cd": "1801",
      "station_nm_jpn": "ケボン",
      "station_nm_eng": "Gaebong",
      "station_nm": "개봉",
      "fr_code": "143",
      "lat": 37.494594,
      "lng": 126.85868
    },
    {
      "line_num": "01호선",
      "station_nm_chn": "天安",
      "station_cd": "1728",
      "station_nm_jpn": "チョナン",
      "station_nm_eng": "Cheonan",
      "station_nm": "천안",
      "fr_code": "P169",
      "lat": 36.810005,
      "lng": 127.146826
    },
    {
      "line_num": "01호선",
      "station_nm_chn": "斗井",
      "station_cd": "1727",
      "station_nm_jpn": "トゥジョン",
      "station_nm_eng": "Dujeong",
      "station_nm": "두정",
      "fr_code": "P168",
      "lat": 36.833705,
      "lng": 127.14896
    },
    {
      "line_num": "01호선",
      "station_nm_chn": "稷山",
      "station_cd": "1726",
      "station_nm_jpn": "チッサン",
      "station_nm_eng": "Jiksan",
      "station_nm": "직산",
      "fr_code": "P167",
      "lat": 36.870593,
      "lng": 127.143904
    },
    {
      "line_num": "01호선",
      "station_nm_chn": "成欢",
      "station_cd": "1725",
      "station_nm_jpn": "ソンファン",
      "station_nm_eng": "Seonghwan",
      "station_nm": "성환",
      "fr_code": "P166",
      "lat": 36.916076,
      "lng": 127.126964
    },
    {
      "line_num": "01호선",
      "station_nm_chn": "振威",
      "station_cd": "1720",
      "station_nm_jpn": "チヌィ",
      "station_nm_eng": "Jinwi",
      "station_nm": "진위",
      "fr_code": "P161",
      "lat": 37.109447,
      "lng": 127.062278
    },
    {
      "line_num": "01호선",
      "station_nm_chn": "水原",
      "station_cd": "1713",
      "station_nm_jpn": "スウォン",
      "station_nm_eng": "Suwon",
      "station_nm": "수원",
      "fr_code": "P155",
      "lat": 37.265974,
      "lng": 126.999874
    },
    {
      "line_num": "01호선",
      "station_nm_chn": "加山数码园区",
      "station_cd": "1702",
      "station_nm_jpn": "カサン・デジタルダンジ",
      "station_nm_eng": "Gasan Digital Complex",
      "station_nm": "가산디지털단지",
      "fr_code": "P142",
      "lat": 37.481072,
      "lng": 126.882343
    },
    {
      "line_num": "01호선",
      "station_nm_chn": "衿川区厅",
      "station_cd": "1703",
      "station_nm_jpn": "クムチョングチョン",
      "station_nm_eng": "Geumcheon-Gu Office",
      "station_nm": "금천구청",
      "fr_code": "P144",
      "lat": 37.455626,
      "lng": 126.89398
    },
    {
      "line_num": "01호선",
      "station_nm_chn": "钟阁",
      "station_cd": "0152",
      "station_nm_jpn": "チョンガク",
      "station_nm_eng": "Jonggak",
      "station_nm": "종각",
      "fr_code": "131",
      "lat": 37.570161,
      "lng": 126.982923
    },
    {
      "line_num": "01호선",
      "station_nm_chn": "石溪",
      "station_cd": "1018",
      "station_nm_jpn": "ソッケ",
      "station_nm_eng": "Seokgye",
      "station_nm": "석계",
      "fr_code": "120",
      "lat": 37.614805,
      "lng": 127.065851
    },
    {
      "line_num": "01호선",
      "station_nm_chn": "光云大",
      "station_cd": "1019",
      "station_nm_jpn": "光云大",
      "station_nm_eng": "Kwangwoon Univ.",
      "station_nm": "광운대",
      "fr_code": "119",
      "lat": 37.623632,
      "lng": 127.061835
    },
    {
      "line_num": "01호선",
      "station_nm_chn": "月溪",
      "station_cd": "1020",
      "station_nm_jpn": "ウォルゲ",
      "station_nm_eng": "Wolgye",
      "station_nm": "월계",
      "fr_code": "118",
      "lat": 37.633212,
      "lng": 127.058831
    },
    {
      "line_num": "01호선",
      "station_nm_chn": "市厅",
      "station_cd": "0151",
      "station_nm_jpn": "シチョン",
      "station_nm_eng": "City Hall",
      "station_nm": "시청",
      "fr_code": "132",
      "lat": 37.564718,
      "lng": 126.977108
    },
    {
      "line_num": "01호선",
      "station_nm_chn": "冠岳",
      "station_cd": "1705",
      "station_nm_jpn": "クァナク",
      "station_nm_eng": "Gwanak",
      "station_nm": "관악",
      "fr_code": "P146",
      "lat": 37.419232,
      "lng": 126.908706
    },
    {
      "line_num": "01호선",
      "station_nm_chn": "逍遥山",
      "station_cd": "1916",
      "station_nm_jpn": "ソヨサン",
      "station_nm_eng": "Soyosan",
      "station_nm": "소요산",
      "fr_code": "100",
      "lat": 37.9481,
      "lng": 127.061034
    },
    {
      "line_num": "01호선",
      "station_nm_chn": "东豆川",
      "station_cd": "1915",
      "station_nm_jpn": "トンドゥチョン",
      "station_nm_eng": "Dongducheon",
      "station_nm": "동두천",
      "fr_code": "101",
      "lat": 37.927878,
      "lng": 127.05479
    },
    {
      "line_num": "01호선",
      "station_nm_chn": "九老",
      "station_cd": "1701",
      "station_nm_jpn": "クロ",
      "station_nm_eng": "Guro",
      "station_nm": "구로",
      "fr_code": "141",
      "lat": 37.503039,
      "lng": 126.881966
    },
    {
      "line_num": "01호선",
      "station_nm_chn": "仓洞",
      "station_cd": "1022",
      "station_nm_jpn": "チャンドン",
      "station_nm_eng": "Chang-dong",
      "station_nm": "창동",
      "fr_code": "116",
      "lat": 37.653166,
      "lng": 127.047731
    },
    {
      "line_num": "01호선",
      "station_nm_chn": "华西",
      "station_cd": "1712",
      "station_nm_jpn": "ファソ",
      "station_nm_eng": "Hwaseo",
      "station_nm": "화서",
      "fr_code": "P154",
      "lat": 37.283862,
      "lng": 126.989627
    },
    {
      "line_num": "01호선",
      "station_nm_chn": "鹿川",
      "station_cd": "1021",
      "station_nm_jpn": "ノクチョン",
      "station_nm_eng": "Nokcheon",
      "station_nm": "녹천",
      "fr_code": "117",
      "lat": 37.644799,
      "lng": 127.051269
    },
    {
      "line_num": "01호선",
      "station_nm_chn": "石水",
      "station_cd": "1704",
      "station_nm_jpn": "ソッス",
      "station_nm_eng": "Seoksu",
      "station_nm": "석수",
      "fr_code": "P145",
      "lat": 37.435047,
      "lng": 126.902295
    },
    {
      "line_num": "01호선",
      "station_nm_chn": "首尔",
      "station_cd": "0150",
      "station_nm_jpn": "ソウル",
      "station_nm_eng": "Seoul Station",
      "station_nm": "서울역",
      "fr_code": "133",
      "lat": 37.554648,
      "lng": 126.972559
    },
    {
      "line_num": "01호선",
      "station_nm_chn": "纸杏",
      "station_cd": "1912",
      "station_nm_jpn": "チヘン",
      "station_nm_eng": "Jihaeng",
      "station_nm": "지행",
      "fr_code": "104",
      "lat": 37.892334,
      "lng": 127.055716
    },
    {
      "line_num": "01호선",
      "station_nm_chn": "回基",
      "station_cd": "1015",
      "station_nm_jpn": "フェギ",
      "station_nm_eng": "Hoegi",
      "station_nm": "회기",
      "fr_code": "123",
      "lat": 37.58946,
      "lng": 127.057583
    },
    {
      "line_num": "01호선",
      "station_nm_chn": "回龙",
      "station_cd": "1905",
      "station_nm_jpn": "フェリョン",
      "station_nm_eng": "Hoeryong",
      "station_nm": "회룡",
      "fr_code": "111",
      "lat": 37.724846,
      "lng": 127.046895
    },
    {
      "line_num": "01호선",
      "station_nm_chn": "议政府",
      "station_cd": "1906",
      "station_nm_jpn": "ウィジョンブ",
      "station_nm_eng": "Uijeongbu",
      "station_nm": "의정부",
      "fr_code": "110",
      "lat": 37.738415,
      "lng": 127.045958
    },
    {
      "line_num": "01호선",
      "station_nm_chn": "佳陵",
      "station_cd": "1907",
      "station_nm_jpn": "カヌン",
      "station_nm_eng": "Ganeung",
      "station_nm": "가능",
      "fr_code": "109",
      "lat": 37.748577,
      "lng": 127.044213
    },
    {
      "line_num": "01호선",
      "station_nm_chn": "绿杨",
      "station_cd": "1908",
      "station_nm_jpn": "ノギャン",
      "station_nm_eng": "Nogyang",
      "station_nm": "녹양",
      "fr_code": "108",
      "lat": 37.75938,
      "lng": 127.042292
    },
    {
      "line_num": "01호선",
      "station_nm_chn": "杨州",
      "station_cd": "1909",
      "station_nm_jpn": "ヤンジュ",
      "station_nm_eng": "Yangju",
      "station_nm": "양주",
      "fr_code": "107",
      "lat": 37.774381,
      "lng": 127.044708
    },
    {
      "line_num": "01호선",
      "station_nm_chn": "德溪",
      "station_cd": "1910",
      "station_nm_jpn": "トッケ",
      "station_nm_eng": "Deokgye",
      "station_nm": "덕계",
      "fr_code": "106",
      "lat": 37.818486,
      "lng": 127.056486
    },
    {
      "line_num": "01호선",
      "station_nm_chn": "德亭",
      "station_cd": "1911",
      "station_nm_jpn": "トクチョン",
      "station_nm_eng": "Deokjeong",
      "station_nm": "덕정",
      "fr_code": "105",
      "lat": 37.843188,
      "lng": 127.061277
    },
    {
      "line_num": "01호선",
      "station_nm_chn": "保山",
      "station_cd": "1914",
      "station_nm_jpn": "ポサン",
      "station_nm_eng": "Bosan",
      "station_nm": "보산",
      "fr_code": "102",
      "lat": 37.913702,
      "lng": 127.057277
    },
    {
      "line_num": "01호선",
      "station_nm_chn": "安养",
      "station_cd": "1706",
      "station_nm_jpn": "アニヤン",
      "station_nm_eng": "Anyang",
      "station_nm": "안양",
      "fr_code": "P147",
      "lat": 37.401592,
      "lng": 126.922874
    },
    {
      "line_num": "01호선",
      "station_nm_chn": "鸣鹤",
      "station_cd": "1707",
      "station_nm_jpn": "ミョンハク",
      "station_nm_eng": "Myeonghak",
      "station_nm": "명학",
      "fr_code": "P148",
      "lat": 37.384653,
      "lng": 126.935433
    },
    {
      "line_num": "01호선",
      "station_nm_chn": "军浦",
      "station_cd": "1709",
      "station_nm_jpn": "クンポ",
      "station_nm_eng": "Gunpo",
      "station_nm": "군포",
      "fr_code": "P150",
      "lat": 37.35356,
      "lng": 126.948462
    },
    {
      "line_num": "01호선",
      "station_nm_chn": "望月寺",
      "station_cd": "1904",
      "station_nm_jpn": "マンウォルサ",
      "station_nm_eng": "Mangwolsa",
      "station_nm": "망월사",
      "fr_code": "112",
      "lat": 37.709914,
      "lng": 127.047455
    },
    {
      "line_num": "01호선",
      "station_nm_chn": "道峰山",
      "station_cd": "1903",
      "station_nm_jpn": "トボンサン",
      "station_nm_eng": "Dobongsan",
      "station_nm": "도봉산",
      "fr_code": "113",
      "lat": 37.689313,
      "lng": 127.046222
    },
    {
      "line_num": "01호선",
      "station_nm_chn": "道峰",
      "station_cd": "1902",
      "station_nm_jpn": "トボン",
      "station_nm_eng": "Dobong",
      "station_nm": "도봉",
      "fr_code": "114",
      "lat": 37.679563,
      "lng": 127.045595
    },
    {
      "line_num": "01호선",
      "station_nm_chn": "新吉",
      "station_cd": "1032",
      "station_nm_jpn": "シンギル",
      "station_nm_eng": "Singil",
      "station_nm": "신길",
      "fr_code": "138",
      "lat": 37.517122,
      "lng": 126.917169
    },
    {
      "line_num": "01호선",
      "station_nm_chn": "放鹤",
      "station_cd": "1901",
      "station_nm_jpn": "パンハク",
      "station_nm_eng": "Banghak",
      "station_nm": "방학",
      "fr_code": "115",
      "lat": 37.667503,
      "lng": 127.044273
    },
    {
      "line_num": "01호선",
      "station_nm_chn": "成均馆大学",
      "station_cd": "1711",
      "station_nm_jpn": "ソンギュングァンデ",
      "station_nm_eng": "Sungkyunkwan Univ.",
      "station_nm": "성균관대",
      "fr_code": "P153",
      "lat": 37.300349,
      "lng": 126.97075
    },
    {
      "line_num": "02호선",
      "station_nm_chn": "合井",
      "station_cd": "0238",
      "station_nm_jpn": "ハプチョン",
      "station_nm_eng": "Hapjeong",
      "station_nm": "합정",
      "fr_code": "238",
      "lat": 37.549463,
      "lng": 126.913739
    },
    {
      "line_num": "02호선",
      "station_nm_chn": "堂山",
      "station_cd": "0237",
      "station_nm_jpn": "タンサン",
      "station_nm_eng": "Dangsan",
      "station_nm": "당산",
      "fr_code": "237",
      "lat": 37.53438,
      "lng": 126.902281
    },
    {
      "line_num": "02호선",
      "station_nm_chn": "龙头(东大门区厅)",
      "station_cd": "0250",
      "station_nm_jpn": "ヨンドゥ",
      "station_nm_eng": "Yongdu",
      "station_nm": "용두",
      "fr_code": "211-3",
      "lat": 37.574028,
      "lng": 127.038091
    },
    {
      "line_num": "02호선",
      "station_nm_chn": "市廳",
      "station_cd": "0201",
      "station_nm_jpn": "シチョン",
      "station_nm_eng": "City Hall",
      "station_nm": "시청",
      "fr_code": "201",
      "lat": 37.564718,
      "lng": 126.977108
    },
    {
      "line_num": "02호선",
      "station_nm_chn": "喜鹊山",
      "station_cd": "0200",
      "station_nm_jpn": "カチサン",
      "station_nm_eng": "Kkachisan",
      "station_nm": "까치산",
      "fr_code": "234-4",
      "lat": 37.531768,
      "lng": 126.846683
    },
    {
      "line_num": "02호선",
      "station_nm_chn": "新亭十字路口",
      "station_cd": "0249",
      "station_nm_jpn": "シンジョンネゴリ",
      "station_nm_eng": "Sinjeongnegeori",
      "station_nm": "신정네거리",
      "fr_code": "234-3",
      "lat": 37.520074,
      "lng": 126.852912
    },
    {
      "line_num": "02호선",
      "station_nm_chn": "阳川区厅",
      "station_cd": "0248",
      "station_nm_jpn": "ヤンチョングチョン",
      "station_nm_eng": "Yangcheon-gu Office",
      "station_nm": "양천구청",
      "fr_code": "234-2",
      "lat": 37.512398,
      "lng": 126.865819
    },
    {
      "line_num": "02호선",
      "station_nm_chn": "纛岛",
      "station_cd": "0210",
      "station_nm_jpn": "トゥッソム",
      "station_nm_eng": "Ttukseom",
      "station_nm": "뚝섬",
      "fr_code": "210",
      "lat": 37.547184,
      "lng": 127.047367
    },
    {
      "line_num": "02호선",
      "station_nm_chn": "新道林",
      "station_cd": "0234",
      "station_nm_jpn": "シンドリム",
      "station_nm_eng": "Sindorim",
      "station_nm": "신도림",
      "fr_code": "234",
      "lat": 37.508725,
      "lng": 126.891295
    },
    {
      "line_num": "02호선",
      "station_nm_chn": "大林(九老区厅)",
      "station_cd": "0233",
      "station_nm_jpn": "テリム",
      "station_nm_eng": "Daerim",
      "station_nm": "대림",
      "fr_code": "233",
      "lat": 37.49297,
      "lng": 126.895801
    },
    {
      "line_num": "02호선",
      "station_nm_chn": "九老数码园区",
      "station_cd": "0232",
      "station_nm_jpn": "クロ・デジタルダンジ",
      "station_nm_eng": "Guro Digital Complex",
      "station_nm": "구로디지털단지",
      "fr_code": "232",
      "lat": 37.485266,
      "lng": 126.901401
    },
    {
      "line_num": "02호선",
      "station_nm_chn": "方背",
      "station_cd": "0225",
      "station_nm_jpn": "パンベ",
      "station_nm_eng": "Bangbae",
      "station_nm": "방배",
      "fr_code": "225",
      "lat": 37.481426,
      "lng": 126.997596
    },
    {
      "line_num": "02호선",
      "station_nm_chn": "新大方",
      "station_cd": "0231",
      "station_nm_jpn": "シンデバン",
      "station_nm_eng": "Sindaebang",
      "station_nm": "신대방",
      "fr_code": "231",
      "lat": 37.487462,
      "lng": 126.913149
    },
    {
      "line_num": "02호선",
      "station_nm_chn": "新林",
      "station_cd": "0230",
      "station_nm_jpn": "シンリム",
      "station_nm_eng": "Sillim",
      "station_nm": "신림",
      "fr_code": "230",
      "lat": 37.484201,
      "lng": 126.929715
    },
    {
      "line_num": "02호선",
      "station_nm_chn": "奉天",
      "station_cd": "0229",
      "station_nm_jpn": "ポンチョン",
      "station_nm_eng": "Bongcheon",
      "station_nm": "봉천",
      "fr_code": "229",
      "lat": 37.482362,
      "lng": 126.941892
    },
    {
      "line_num": "02호선",
      "station_nm_chn": "江南",
      "station_cd": "0222",
      "station_nm_jpn": "カンナム",
      "station_nm_eng": "Gangnam",
      "station_nm": "강남",
      "fr_code": "222",
      "lat": 37.497175,
      "lng": 127.027926
    },
    {
      "line_num": "02호선",
      "station_nm_chn": "驿三",
      "station_cd": "0221",
      "station_nm_jpn": "ヨッサム",
      "station_nm_eng": "Yeoksam",
      "station_nm": "역삼",
      "fr_code": "221",
      "lat": 37.500622,
      "lng": 127.036456
    },
    {
      "line_num": "02호선",
      "station_nm_chn": "道林川",
      "station_cd": "0247",
      "station_nm_jpn": "トリムチョン",
      "station_nm_eng": "Dorimcheon",
      "station_nm": "도림천",
      "fr_code": "234-1",
      "lat": 37.514287,
      "lng": 126.882768
    },
    {
      "line_num": "02호선",
      "station_nm_chn": "宣陵",
      "station_cd": "0220",
      "station_nm_jpn": "ソンルン",
      "station_nm_eng": "Seolleung",
      "station_nm": "선릉",
      "fr_code": "220",
      "lat": 37.504503,
      "lng": 127.049008
    },
    {
      "line_num": "02호선",
      "station_nm_chn": "首尔大学(冠岳区厅)",
      "station_cd": "0228",
      "station_nm_jpn": "ソウルデイック",
      "station_nm_eng": "Seoul Nat`l Univ.",
      "station_nm": "서울대입구",
      "fr_code": "228",
      "lat": 37.481247,
      "lng": 126.952739
    },
    {
      "line_num": "02호선",
      "station_nm_chn": "三成(会展中心)",
      "station_cd": "0219",
      "station_nm_jpn": "サムソン(三成)",
      "station_nm_eng": "Samseong",
      "station_nm": "삼성",
      "fr_code": "219",
      "lat": 37.508844,
      "lng": 127.06316
    },
    {
      "line_num": "02호선",
      "station_nm_chn": "落星垈",
      "station_cd": "0227",
      "station_nm_jpn": "ナクソンデ",
      "station_nm_eng": "Nakseongdae",
      "station_nm": "낙성대",
      "fr_code": "227",
      "lat": 37.47693,
      "lng": 126.963693
    },
    {
      "line_num": "02호선",
      "station_nm_chn": "永登浦区厅",
      "station_cd": "0236",
      "station_nm_jpn": "ヨンドゥンポグチョン",
      "station_nm_eng": "Yeongdeungpo-gu Office",
      "station_nm": "영등포구청",
      "fr_code": "236",
      "lat": 37.52497,
      "lng": 126.895951
    },
    {
      "line_num": "02호선",
      "station_nm_chn": "舍堂",
      "station_cd": "0226",
      "station_nm_jpn": "サダン",
      "station_nm_eng": "Sadang",
      "station_nm": "사당",
      "fr_code": "226",
      "lat": 37.47653,
      "lng": 126.981685
    },
    {
      "line_num": "02호선",
      "station_nm_chn": "综合运动场",
      "station_cd": "0218",
      "station_nm_jpn": "チョンハブンドンジャン",
      "station_nm_eng": "Sports Complex",
      "station_nm": "종합운동장",
      "fr_code": "218",
      "lat": 37.510997,
      "lng": 127.073642
    },
    {
      "line_num": "02호선",
      "station_nm_chn": "新設洞",
      "station_cd": "0246",
      "station_nm_jpn": "シンソルトン",
      "station_nm_eng": "Sinseol-dong",
      "station_nm": "신설동",
      "fr_code": "211-4",
      "lat": 37.575297,
      "lng": 127.025087
    },
    {
      "line_num": "02호선",
      "station_nm_chn": "新踏",
      "station_cd": "0245",
      "station_nm_jpn": "シンダプ",
      "station_nm_eng": "Sindap",
      "station_nm": "신답",
      "fr_code": "211-2",
      "lat": 37.57004,
      "lng": 127.046481
    },
    {
      "line_num": "02호선",
      "station_nm_chn": "龙踏",
      "station_cd": "0244",
      "station_nm_jpn": "ヨンダプ",
      "station_nm_eng": "Yongdap",
      "station_nm": "용답",
      "fr_code": "211-1",
      "lat": 37.561904,
      "lng": 127.050899
    },
    {
      "line_num": "02호선",
      "station_nm_chn": "忠正路(京畿大学)",
      "station_cd": "0243",
      "station_nm_jpn": "チュンジョンノ",
      "station_nm_eng": "Chungjeongno",
      "station_nm": "충정로",
      "fr_code": "243",
      "lat": 37.559973,
      "lng": 126.963672
    },
    {
      "line_num": "02호선",
      "station_nm_chn": "阿岘",
      "station_cd": "0242",
      "station_nm_jpn": "アヒョン",
      "station_nm_eng": "Ahyeon",
      "station_nm": "아현",
      "fr_code": "242",
      "lat": 37.557345,
      "lng": 126.956141
    },
    {
      "line_num": "02호선",
      "station_nm_chn": "梨花女子大学",
      "station_cd": "0241",
      "station_nm_jpn": "イデ",
      "station_nm_eng": "Ewha Womans Univ.",
      "station_nm": "이대",
      "fr_code": "241",
      "lat": 37.556733,
      "lng": 126.946013
    },
    {
      "line_num": "02호선",
      "station_nm_chn": "蚕室新川",
      "station_cd": "0217",
      "station_nm_jpn": "チャムシルセネ",
      "station_nm_eng": "Jamsilsaenae",
      "station_nm": "잠실새내",
      "fr_code": "217",
      "lat": 37.511687,
      "lng": 127.086162
    },
    {
      "line_num": "02호선",
      "station_nm_chn": "蚕室(松坡区厅)",
      "station_cd": "0216",
      "station_nm_jpn": "チャムシル",
      "station_nm_eng": "Jamsil",
      "station_nm": "잠실",
      "fr_code": "216",
      "lat": 37.51395,
      "lng": 127.102234
    },
    {
      "line_num": "02호선",
      "station_nm_chn": "蚕室渡口",
      "station_cd": "0215",
      "station_nm_jpn": "チャムシルナル",
      "station_nm_eng": "Jamsillaru",
      "station_nm": "잠실나루",
      "fr_code": "215",
      "lat": 37.520733,
      "lng": 127.10379
    },
    {
      "line_num": "02호선",
      "station_nm_chn": "江边(东首尔客运站)",
      "station_cd": "0214",
      "station_nm_jpn": "カンビョン",
      "station_nm_eng": "Gangbyeon",
      "station_nm": "강변",
      "fr_code": "214",
      "lat": 37.535095,
      "lng": 127.094681
    },
    {
      "line_num": "02호선",
      "station_nm_chn": "新村",
      "station_cd": "0240",
      "station_nm_jpn": "シンチョン(新村)",
      "station_nm_eng": "Sinchon",
      "station_nm": "신촌",
      "fr_code": "240",
      "lat": 37.555134,
      "lng": 126.936893
    },
    {
      "line_num": "02호선",
      "station_nm_chn": "东大门历史文化公园(DDP)",
      "station_cd": "0205",
      "station_nm_jpn": "トンデムンヨクサムンファゴンウォン(DDP)",
      "station_nm_eng": "Dongdaemun History  Culture Park",
      "station_nm": "동대문역사문화공원",
      "fr_code": "205",
      "lat": 37.565138,
      "lng": 127.007896
    },
    {
      "line_num": "02호선",
      "station_nm_chn": "弘益大学",
      "station_cd": "0239",
      "station_nm_jpn": "ホンデイック",
      "station_nm_eng": "Hongik Univ.",
      "station_nm": "홍대입구",
      "fr_code": "239",
      "lat": 37.557192,
      "lng": 126.925381
    },
    {
      "line_num": "02호선",
      "station_nm_chn": "新堂",
      "station_cd": "0206",
      "station_nm_jpn": "シンダン",
      "station_nm_eng": "Sindang",
      "station_nm": "신당",
      "fr_code": "206",
      "lat": 37.565972,
      "lng": 127.01782
    },
    {
      "line_num": "02호선",
      "station_nm_chn": "文來",
      "station_cd": "0235",
      "station_nm_jpn": "ムンレ",
      "station_nm_eng": "Mullae",
      "station_nm": "문래",
      "fr_code": "235",
      "lat": 37.517933,
      "lng": 126.89476
    },
    {
      "line_num": "02호선",
      "station_nm_chn": "九宜",
      "station_cd": "0213",
      "station_nm_jpn": "クイ",
      "station_nm_eng": "Guui",
      "station_nm": "구의",
      "fr_code": "213",
      "lat": 37.537077,
      "lng": 127.085916
    },
    {
      "line_num": "02호선",
      "station_nm_chn": "乙支路四街",
      "station_cd": "0204",
      "station_nm_jpn": "ウルチロサガ",
      "station_nm_eng": "Euljiro 4(sa)-ga",
      "station_nm": "을지로4가",
      "fr_code": "204",
      "lat": 37.566941,
      "lng": 126.998079
    },
    {
      "line_num": "02호선",
      "station_nm_chn": "汉阳大学",
      "station_cd": "0209",
      "station_nm_jpn": "ハニャンデ",
      "station_nm_eng": "Hanyang Univ.",
      "station_nm": "한양대",
      "fr_code": "209",
      "lat": 37.555273,
      "lng": 127.043655
    },
    {
      "line_num": "02호선",
      "station_nm_chn": "上往十里",
      "station_cd": "0207",
      "station_nm_jpn": "サンワンシムニ",
      "station_nm_eng": "Sangwangsimni",
      "station_nm": "상왕십리",
      "fr_code": "207",
      "lat": 37.564354,
      "lng": 127.029354
    },
    {
      "line_num": "02호선",
      "station_nm_chn": "乙支路三街",
      "station_cd": "0203",
      "station_nm_jpn": "ウルチロサムガ",
      "station_nm_eng": "Euljiro 3(sam)-ga",
      "station_nm": "을지로3가",
      "fr_code": "203",
      "lat": 37.566295,
      "lng": 126.99191
    },
    {
      "line_num": "02호선",
      "station_nm_chn": "建国大学",
      "station_cd": "0212",
      "station_nm_jpn": "コンデイック",
      "station_nm_eng": "Konkuk Univ.",
      "station_nm": "건대입구",
      "fr_code": "212",
      "lat": 37.540693,
      "lng": 127.07023
    },
    {
      "line_num": "02호선",
      "station_nm_chn": "瑞草",
      "station_cd": "0224",
      "station_nm_jpn": "ソチョ",
      "station_nm_eng": "Seocho",
      "station_nm": "서초",
      "fr_code": "224",
      "lat": 37.491897,
      "lng": 127.007917
    },
    {
      "line_num": "02호선",
      "station_nm_chn": "首尔教育大学",
      "station_cd": "0223",
      "station_nm_jpn": "キョデ",
      "station_nm_eng": "Seoul Nat`l Univ. of Education",
      "station_nm": "교대",
      "fr_code": "223",
      "lat": 37.493415,
      "lng": 127.01408
    },
    {
      "line_num": "02호선",
      "station_nm_chn": "圣水",
      "station_cd": "0211",
      "station_nm_jpn": "ソンス",
      "station_nm_eng": "Seongsu",
      "station_nm": "성수",
      "fr_code": "211",
      "lat": 37.544581,
      "lng": 127.055961
    },
    {
      "line_num": "02호선",
      "station_nm_chn": "往十里",
      "station_cd": "0208",
      "station_nm_jpn": "ワンシムニ",
      "station_nm_eng": "Wangsimni",
      "station_nm": "왕십리",
      "fr_code": "208",
      "lat": 37.561533,
      "lng": 127.037732
    },
    {
      "line_num": "02호선",
      "station_nm_chn": "乙支路入口",
      "station_cd": "0202",
      "station_nm_jpn": "ウルチロイック",
      "station_nm_eng": "Euljiro 1(il)-ga",
      "station_nm": "을지로입구",
      "fr_code": "202",
      "lat": 37.566014,
      "lng": 126.982618
    },
    {
      "line_num": "03호선",
      "station_nm_chn": "道谷",
      "station_cd": "0334",
      "station_nm_jpn": "トゴク",
      "station_nm_eng": "Dogok",
      "station_nm": "도곡",
      "fr_code": "344",
      "lat": 37.490858,
      "lng": 127.055381
    },
    {
      "line_num": "03호선",
      "station_nm_chn": "高速巴士客运站",
      "station_cd": "0329",
      "station_nm_jpn": "コソクターミナル",
      "station_nm_eng": "Express Bus Terminal",
      "station_nm": "고속터미널",
      "fr_code": "339",
      "lat": 37.50481,
      "lng": 127.004943
    },
    {
      "line_num": "03호선",
      "station_nm_chn": "东国大学",
      "station_cd": "0322",
      "station_nm_jpn": "トンデイック",
      "station_nm_eng": "Dongguk Univ.",
      "station_nm": "동대입구",
      "fr_code": "332",
      "lat": 37.559052,
      "lng": 127.005602
    },
    {
      "line_num": "03호선",
      "station_nm_chn": "忠武路",
      "station_cd": "0321",
      "station_nm_jpn": "チュンムロ",
      "station_nm_eng": "Chungmuro",
      "station_nm": "충무로",
      "fr_code": "331",
      "lat": 37.561243,
      "lng": 126.99428
    },
    {
      "line_num": "03호선",
      "station_nm_chn": "乙支路三街",
      "station_cd": "0320",
      "station_nm_jpn": "ウルチロサムガ",
      "station_nm_eng": "Euljiro 3(sam)-ga",
      "station_nm": "을지로3가",
      "fr_code": "330",
      "lat": 37.566295,
      "lng": 126.99191
    },
    {
      "line_num": "03호선",
      "station_nm_chn": "钟路三街",
      "station_cd": "0319",
      "station_nm_jpn": "チョンノサムガ",
      "station_nm_eng": "Jongno 3(sam)-ga",
      "station_nm": "종로3가",
      "fr_code": "329",
      "lat": 37.571607,
      "lng": 126.991806
    },
    {
      "line_num": "03호선",
      "station_nm_chn": "景福宫(政府首尔厅舍)",
      "station_cd": "0317",
      "station_nm_jpn": "キョンボックン",
      "station_nm_eng": "Gyeongbokgung",
      "station_nm": "경복궁",
      "fr_code": "327",
      "lat": 37.575762,
      "lng": 126.97353
    },
    {
      "line_num": "03호선",
      "station_nm_chn": "蚕院",
      "station_cd": "0328",
      "station_nm_jpn": "チャムォン",
      "station_nm_eng": "Jamwon",
      "station_nm": "잠원",
      "fr_code": "338",
      "lat": 37.512759,
      "lng": 127.01122
    },
    {
      "line_num": "03호선",
      "station_nm_chn": "碌磻",
      "station_cd": "0313",
      "station_nm_jpn": "ノッポン",
      "station_nm_eng": "Nokbeon",
      "station_nm": "녹번",
      "fr_code": "323",
      "lat": 37.600927,
      "lng": 126.935756
    },
    {
      "line_num": "03호선",
      "station_nm_chn": "佛光",
      "station_cd": "0312",
      "station_nm_jpn": "プルグァン",
      "station_nm_eng": "Bulgwang",
      "station_nm": "불광",
      "fr_code": "322",
      "lat": 37.610469,
      "lng": 126.929887
    },
    {
      "line_num": "03호선",
      "station_nm_chn": "大化",
      "station_cd": "1958",
      "station_nm_jpn": "大化",
      "station_nm_eng": "Daehwa",
      "station_nm": "대화",
      "fr_code": "309",
      "lat": 37.676087,
      "lng": 126.747569
    },
    {
      "line_num": "03호선",
      "station_nm_chn": "注葉",
      "station_cd": "1957",
      "station_nm_jpn": "注葉",
      "station_nm_eng": "Juyeop",
      "station_nm": "주엽",
      "fr_code": "310",
      "lat": 37.670072,
      "lng": 126.761334
    },
    {
      "line_num": "03호선",
      "station_nm_chn": "元堂",
      "station_cd": "1951",
      "station_nm_jpn": "元堂",
      "station_nm_eng": "Wondang",
      "station_nm": "원당",
      "fr_code": "316",
      "lat": 37.653324,
      "lng": 126.843041
    },
    {
      "line_num": "03호선",
      "station_nm_chn": "安国",
      "station_cd": "0318",
      "station_nm_jpn": "アングク",
      "station_nm_eng": "Anguk",
      "station_nm": "안국",
      "fr_code": "328",
      "lat": 37.576477,
      "lng": 126.985443
    },
    {
      "line_num": "03호선",
      "station_nm_chn": "独立门",
      "station_cd": "0316",
      "station_nm_jpn": "トンニンムン",
      "station_nm_eng": "Dongnimmun",
      "station_nm": "독립문",
      "fr_code": "326",
      "lat": 37.574571,
      "lng": 126.957748
    },
    {
      "line_num": "03호선",
      "station_nm_chn": "毋岳岭",
      "station_cd": "0315",
      "station_nm_jpn": "ムアクチェ",
      "station_nm_eng": "Muakjae",
      "station_nm": "무악재",
      "fr_code": "325",
      "lat": 37.582299,
      "lng": 126.950291
    },
    {
      "line_num": "03호선",
      "station_nm_chn": "弘济",
      "station_cd": "0314",
      "station_nm_jpn": "ホンジェ",
      "station_nm_eng": "Hongje",
      "station_nm": "홍제",
      "fr_code": "324",
      "lat": 37.589066,
      "lng": 126.943736
    },
    {
      "line_num": "03호선",
      "station_nm_chn": "延新川",
      "station_cd": "0311",
      "station_nm_jpn": "ヨンシンネ",
      "station_nm_eng": "Yeonsinnae",
      "station_nm": "연신내",
      "fr_code": "321",
      "lat": 37.619001,
      "lng": 126.921008
    },
    {
      "line_num": "03호선",
      "station_nm_chn": "旧把拨",
      "station_cd": "0310",
      "station_nm_jpn": "クパバル",
      "station_nm_eng": "Gupabal",
      "station_nm": "구파발",
      "fr_code": "320",
      "lat": 37.636763,
      "lng": 126.918821
    },
    {
      "line_num": "03호선",
      "station_nm_chn": "纸杻",
      "station_cd": "0309",
      "station_nm_jpn": "チチュク",
      "station_nm_eng": "Jichuk",
      "station_nm": "지축",
      "fr_code": "319",
      "lat": 37.648048,
      "lng": 126.913951
    },
    {
      "line_num": "03호선",
      "station_nm_chn": "警察医院",
      "station_cd": "0341",
      "station_nm_jpn": "キョンチャル・ピョンウォン",
      "station_nm_eng": "National Police Hospital",
      "station_nm": "경찰병원",
      "fr_code": "351",
      "lat": 37.495918,
      "lng": 127.12454
    },
    {
      "line_num": "03호선",
      "station_nm_chn": "可乐市场",
      "station_cd": "0340",
      "station_nm_jpn": "カラク・シジャン",
      "station_nm_eng": "Garak Market",
      "station_nm": "가락시장",
      "fr_code": "350",
      "lat": 37.492522,
      "lng": 127.118234
    },
    {
      "line_num": "03호선",
      "station_nm_chn": "水西",
      "station_cd": "0339",
      "station_nm_jpn": "スソ",
      "station_nm_eng": "Suseo",
      "station_nm": "수서",
      "fr_code": "349",
      "lat": 37.487371,
      "lng": 127.10188
    },
    {
      "line_num": "03호선",
      "station_nm_chn": "逸院",
      "station_cd": "0338",
      "station_nm_jpn": "イルォン",
      "station_nm_eng": "Irwon",
      "station_nm": "일원",
      "fr_code": "348",
      "lat": 37.483681,
      "lng": 127.08439
    },
    {
      "line_num": "03호선",
      "station_nm_chn": "大厅",
      "station_cd": "0337",
      "station_nm_jpn": "テチョン",
      "station_nm_eng": "Daecheong",
      "station_nm": "대청",
      "fr_code": "347",
      "lat": 37.493514,
      "lng": 127.079532
    },
    {
      "line_num": "03호선",
      "station_nm_chn": "馬頭",
      "station_cd": "1955",
      "station_nm_jpn": "馬頭",
      "station_nm_eng": "Madu",
      "station_nm": "마두",
      "fr_code": "312",
      "lat": 37.652206,
      "lng": 126.77762
    },
    {
      "line_num": "03호선",
      "station_nm_chn": "白石",
      "station_cd": "1954",
      "station_nm_jpn": "白石",
      "station_nm_eng": "Baekseok",
      "station_nm": "백석",
      "fr_code": "313",
      "lat": 37.643114,
      "lng": 126.78787
    },
    {
      "line_num": "03호선",
      "station_nm_chn": "大谷",
      "station_cd": "1953",
      "station_nm_jpn": "大谷",
      "station_nm_eng": "Daegok",
      "station_nm": "대곡",
      "fr_code": "314",
      "lat": 37.631626,
      "lng": 126.811024
    },
    {
      "line_num": "03호선",
      "station_nm_chn": "鹤滩",
      "station_cd": "0336",
      "station_nm_jpn": "ハンニョウル",
      "station_nm_eng": "Hangnyeoul",
      "station_nm": "학여울",
      "fr_code": "346",
      "lat": 37.496663,
      "lng": 127.070594
    },
    {
      "line_num": "03호선",
      "station_nm_chn": "新沙",
      "station_cd": "0327",
      "station_nm_jpn": "シンサ",
      "station_nm_eng": "Sinsa",
      "station_nm": "신사",
      "fr_code": "337",
      "lat": 37.516334,
      "lng": 127.020114
    },
    {
      "line_num": "03호선",
      "station_nm_chn": "狎鸥亭",
      "station_cd": "0326",
      "station_nm_jpn": "アックジョン",
      "station_nm_eng": "Apgujeong",
      "station_nm": "압구정",
      "fr_code": "336",
      "lat": 37.527072,
      "lng": 127.028461
    },
    {
      "line_num": "03호선",
      "station_nm_chn": "大峙",
      "station_cd": "0335",
      "station_nm_jpn": "テチ",
      "station_nm_eng": "Daechi",
      "station_nm": "대치",
      "fr_code": "345",
      "lat": 37.494612,
      "lng": 127.063642
    },
    {
      "line_num": "03호선",
      "station_nm_chn": "梧琴",
      "station_cd": "0342",
      "station_nm_jpn": "オグム",
      "station_nm_eng": "Ogeum",
      "station_nm": "오금",
      "fr_code": "352",
      "lat": 37.502162,
      "lng": 127.128111
    },
    {
      "line_num": "03호선",
      "station_nm_chn": "梅峰",
      "station_cd": "0333",
      "station_nm_jpn": "メボン",
      "station_nm_eng": "Maebong",
      "station_nm": "매봉",
      "fr_code": "343",
      "lat": 37.486947,
      "lng": 127.046769
    },
    {
      "line_num": "03호선",
      "station_nm_chn": "良才(瑞草区厅)",
      "station_cd": "0332",
      "station_nm_jpn": "ヤンジェ",
      "station_nm_eng": "Yangjae",
      "station_nm": "양재",
      "fr_code": "342",
      "lat": 37.484147,
      "lng": 127.034631
    },
    {
      "line_num": "03호선",
      "station_nm_chn": "南部客运站",
      "station_cd": "0331",
      "station_nm_jpn": "ナンブターミナル",
      "station_nm_eng": "Nambu Bus Terminal",
      "station_nm": "남부터미널",
      "fr_code": "341",
      "lat": 37.485013,
      "lng": 127.016189
    },
    {
      "line_num": "03호선",
      "station_nm_chn": "首尔教育大学",
      "station_cd": "0330",
      "station_nm_jpn": "キョデ",
      "station_nm_eng": "Seoul Nat`l Univ. of Education",
      "station_nm": "교대",
      "fr_code": "340",
      "lat": 37.493415,
      "lng": 127.01408
    },
    {
      "line_num": "03호선",
      "station_nm_chn": "鼎鉢山",
      "station_cd": "1956",
      "station_nm_jpn": "鼎鉢山",
      "station_nm_eng": "Jeongbalsan",
      "station_nm": "정발산",
      "fr_code": "311",
      "lat": 37.659477,
      "lng": 126.773359
    },
    {
      "line_num": "03호선",
      "station_nm_chn": "花井",
      "station_cd": "1952",
      "station_nm_jpn": "花井",
      "station_nm_eng": "Hwajeong",
      "station_nm": "화정",
      "fr_code": "315",
      "lat": 37.634592,
      "lng": 126.83265
    },
    {
      "line_num": "03호선",
      "station_nm_chn": "玉水",
      "station_cd": "0325",
      "station_nm_jpn": "オクス",
      "station_nm_eng": "Oksu",
      "station_nm": "옥수",
      "fr_code": "335",
      "lat": 37.540685,
      "lng": 127.017965
    },
    {
      "line_num": "03호선",
      "station_nm_chn": "金湖",
      "station_cd": "0324",
      "station_nm_jpn": "クムホ",
      "station_nm_eng": "Geumho",
      "station_nm": "금호",
      "fr_code": "334",
      "lat": 37.548034,
      "lng": 127.015872
    },
    {
      "line_num": "03호선",
      "station_nm_chn": "药水",
      "station_cd": "0323",
      "station_nm_jpn": "ヤクス",
      "station_nm_eng": "Yaksu",
      "station_nm": "약수",
      "fr_code": "333",
      "lat": 37.55434,
      "lng": 127.010655
    },
    {
      "line_num": "03호선",
      "station_nm_chn": "三松",
      "station_cd": "1950",
      "station_nm_jpn": "三松",
      "station_nm_eng": "Samsong",
      "station_nm": "삼송",
      "fr_code": "318",
      "lat": 37.653083,
      "lng": 126.895558
    },
    {
      "line_num": "03호선",
      "station_nm_chn": "元興",
      "station_cd": "1948",
      "station_nm_jpn": "ウォンフン",
      "station_nm_eng": "Wonheung",
      "station_nm": "원흥",
      "fr_code": "317",
      "lat": 37.650658,
      "lng": 126.872642
    },
    {
      "line_num": "04호선",
      "station_nm_chn": "果川",
      "station_cd": "1453",
      "station_nm_jpn": "クァチョン",
      "station_nm_eng": "Gwacheon",
      "station_nm": "과천",
      "fr_code": "438",
      "lat": 37.433021,
      "lng": 126.996568
    },
    {
      "line_num": "04호선",
      "station_nm_chn": "舍堂",
      "station_cd": "0433",
      "station_nm_jpn": "サダン",
      "station_nm_eng": "Sadang",
      "station_nm": "사당",
      "fr_code": "433",
      "lat": 37.47653,
      "lng": 126.981685
    },
    {
      "line_num": "04호선",
      "station_nm_chn": "南泰岭",
      "station_cd": "0434",
      "station_nm_jpn": "ナムテリョン",
      "station_nm_eng": "Namtaeryeong",
      "station_nm": "남태령",
      "fr_code": "434",
      "lat": 37.463873,
      "lng": 126.989134
    },
    {
      "line_num": "04호선",
      "station_nm_chn": "立岩",
      "station_cd": "1450",
      "station_nm_jpn": "ソンバウィ",
      "station_nm_eng": "Seonbawi",
      "station_nm": "선바위",
      "fr_code": "435",
      "lat": 37.451673,
      "lng": 127.002303
    },
    {
      "line_num": "04호선",
      "station_nm_chn": "赛马公园",
      "station_cd": "1451",
      "station_nm_jpn": "キョンマゴンウォン",
      "station_nm_eng": "Seoul Racecourse Park",
      "station_nm": "경마공원",
      "fr_code": "436",
      "lat": 37.443885,
      "lng": 127.007888
    },
    {
      "line_num": "04호선",
      "station_nm_chn": "首尔大公园",
      "station_cd": "1452",
      "station_nm_jpn": "テゴンウォン",
      "station_nm_eng": "Seoul Grand Park",
      "station_nm": "대공원",
      "fr_code": "437",
      "lat": 37.435675,
      "lng": 127.006523
    },
    {
      "line_num": "04호선",
      "station_nm_chn": "上溪",
      "station_cd": "0410",
      "station_nm_jpn": "サンゲ",
      "station_nm_eng": "Sanggye",
      "station_nm": "상계",
      "fr_code": "410",
      "lat": 37.660878,
      "lng": 127.073572
    },
    {
      "line_num": "04호선",
      "station_nm_chn": "政府果川厅舍",
      "station_cd": "1454",
      "station_nm_jpn": "チョンブ・クァチョンチョンサ",
      "station_nm_eng": "Government Complex Gwacheon",
      "station_nm": "정부과천청사",
      "fr_code": "439",
      "lat": 37.426513,
      "lng": 126.98978
    },
    {
      "line_num": "04호선",
      "station_nm_chn": "双门",
      "station_cd": "0413",
      "station_nm_jpn": "サンムン",
      "station_nm_eng": "Ssangmun",
      "station_nm": "쌍문",
      "fr_code": "413",
      "lat": 37.648627,
      "lng": 127.034709
    },
    {
      "line_num": "04호선",
      "station_nm_chn": "水逾(江北区厅)",
      "station_cd": "0414",
      "station_nm_jpn": "スユ",
      "station_nm_eng": "Suyu",
      "station_nm": "수유",
      "fr_code": "414",
      "lat": 37.638052,
      "lng": 127.025732
    },
    {
      "line_num": "04호선",
      "station_nm_chn": "芦原",
      "station_cd": "0411",
      "station_nm_jpn": "ノウォン",
      "station_nm_eng": "Nowon",
      "station_nm": "노원",
      "fr_code": "411",
      "lat": 37.655128,
      "lng": 127.061368
    },
    {
      "line_num": "04호선",
      "station_nm_chn": "仓洞",
      "station_cd": "0412",
      "station_nm_jpn": "チャンドン",
      "station_nm_eng": "Chang-dong",
      "station_nm": "창동",
      "fr_code": "412",
      "lat": 37.653166,
      "lng": 127.047731
    },
    {
      "line_num": "04호선",
      "station_nm_chn": "弥阿(首尔网络大学)",
      "station_cd": "0415",
      "station_nm_jpn": "ミア",
      "station_nm_eng": "Mia",
      "station_nm": "미아",
      "fr_code": "415",
      "lat": 37.62667,
      "lng": 127.025983
    },
    {
      "line_num": "04호선",
      "station_nm_chn": "弥阿十字路口",
      "station_cd": "0416",
      "station_nm_jpn": "ミアサゴリ",
      "station_nm_eng": "Miasageori",
      "station_nm": "미아사거리",
      "fr_code": "416",
      "lat": 37.613292,
      "lng": 127.030053
    },
    {
      "line_num": "04호선",
      "station_nm_chn": "吉音",
      "station_cd": "0417",
      "station_nm_jpn": "キルム",
      "station_nm_eng": "Gireum",
      "station_nm": "길음",
      "fr_code": "417",
      "lat": 37.603407,
      "lng": 127.025053
    },
    {
      "line_num": "04호선",
      "station_nm_chn": "新吉温泉",
      "station_cd": "1760",
      "station_nm_jpn": "シンギル・オンチョン",
      "station_nm_eng": "Neunggil",
      "station_nm": "신길온천",
      "fr_code": "454",
      "lat": 37.338212,
      "lng": 126.765844
    },
    {
      "line_num": "04호선",
      "station_nm_chn": "三角地",
      "station_cd": "0428",
      "station_nm_jpn": "サムガクチ",
      "station_nm_eng": "Samgakji",
      "station_nm": "삼각지",
      "fr_code": "428",
      "lat": 37.534777,
      "lng": 126.97311
    },
    {
      "line_num": "04호선",
      "station_nm_chn": "诚信女子大学(敦岩)",
      "station_cd": "0418",
      "station_nm_jpn": "ソンシンヨデイック",
      "station_nm_eng": "Sungshin Women`s Univ.",
      "station_nm": "성신여대입구",
      "fr_code": "418",
      "lat": 37.592624,
      "lng": 127.016403
    },
    {
      "line_num": "04호선",
      "station_nm_chn": "汉城大学",
      "station_cd": "0419",
      "station_nm_jpn": "ハンソンデイック",
      "station_nm_eng": "Hansung Univ.",
      "station_nm": "한성대입구",
      "fr_code": "419",
      "lat": 37.588458,
      "lng": 127.006221
    },
    {
      "line_num": "04호선",
      "station_nm_chn": "惠化",
      "station_cd": "0420",
      "station_nm_jpn": "ヘファ",
      "station_nm_eng": "Hyehwa",
      "station_nm": "혜화",
      "fr_code": "420",
      "lat": 37.582336,
      "lng": 127.001844
    },
    {
      "line_num": "04호선",
      "station_nm_chn": "东大门",
      "station_cd": "0421",
      "station_nm_jpn": "トンデムン",
      "station_nm_eng": "Dongdaemun",
      "station_nm": "동대문",
      "fr_code": "421",
      "lat": 37.57142,
      "lng": 127.009745
    },
    {
      "line_num": "04호선",
      "station_nm_chn": "东大门历史文化公园",
      "station_cd": "0422",
      "station_nm_jpn": "トンデムンヨクサムンファゴンウォン",
      "station_nm_eng": "Dongdaemun History  Culture Park",
      "station_nm": "동대문역사문화공원",
      "fr_code": "422",
      "lat": 37.565138,
      "lng": 127.007896
    },
    {
      "line_num": "04호선",
      "station_nm_chn": "忠武路",
      "station_cd": "0423",
      "station_nm_jpn": "チュンムロ",
      "station_nm_eng": "Chungmuro",
      "station_nm": "충무로",
      "fr_code": "423",
      "lat": 37.561243,
      "lng": 126.99428
    },
    {
      "line_num": "04호선",
      "station_nm_chn": "明洞",
      "station_cd": "0424",
      "station_nm_jpn": "ミョンドン",
      "station_nm_eng": "Myeong-dong",
      "station_nm": "명동",
      "fr_code": "424",
      "lat": 37.560989,
      "lng": 126.986325
    },
    {
      "line_num": "04호선",
      "station_nm_chn": "会贤(南大门市场)",
      "station_cd": "0425",
      "station_nm_jpn": "フェヒョン",
      "station_nm_eng": "Hoehyeon",
      "station_nm": "회현",
      "fr_code": "425",
      "lat": 37.558514,
      "lng": 126.978246
    },
    {
      "line_num": "04호선",
      "station_nm_chn": "首尔站",
      "station_cd": "0426",
      "station_nm_jpn": "ソウルヨク",
      "station_nm_eng": "Seoul Station",
      "station_nm": "서울역",
      "fr_code": "426",
      "lat": 37.554648,
      "lng": 126.972559
    },
    {
      "line_num": "04호선",
      "station_nm_chn": "淑明女子大学(葛月)",
      "station_cd": "0427",
      "station_nm_jpn": "スクテイック",
      "station_nm_eng": "Sookmyung Women`s Univ.",
      "station_nm": "숙대입구",
      "fr_code": "427",
      "lat": 37.54456,
      "lng": 126.972106
    },
    {
      "line_num": "04호선",
      "station_nm_chn": "古栈",
      "station_cd": "1757",
      "station_nm_jpn": "コジャン",
      "station_nm_eng": "Gojan",
      "station_nm": "고잔",
      "fr_code": "451",
      "lat": 37.316777,
      "lng": 126.823249
    },
    {
      "line_num": "04호선",
      "station_nm_chn": "草芝",
      "station_cd": "1758",
      "station_nm_jpn": "チョジ",
      "station_nm_eng": "Choji",
      "station_nm": "초지",
      "fr_code": "452",
      "lat": 37.320646,
      "lng": 126.805913
    },
    {
      "line_num": "04호선",
      "station_nm_chn": "安山",
      "station_cd": "1759",
      "station_nm_jpn": "アンサン",
      "station_nm_eng": "Ansan",
      "station_nm": "안산",
      "fr_code": "453",
      "lat": 37.327082,
      "lng": 126.788532
    },
    {
      "line_num": "04호선",
      "station_nm_chn": "修理山",
      "station_cd": "1763",
      "station_nm_jpn": "スリサン",
      "station_nm_eng": "Surisan",
      "station_nm": "수리산",
      "fr_code": "445",
      "lat": 37.349801,
      "lng": 126.925365
    },
    {
      "line_num": "04호선",
      "station_nm_chn": "山本",
      "station_cd": "1751",
      "station_nm_jpn": "サンボン",
      "station_nm_eng": "Sanbon",
      "station_nm": "산본",
      "fr_code": "444",
      "lat": 37.358101,
      "lng": 126.933274
    },
    {
      "line_num": "04호선",
      "station_nm_chn": "大夜味",
      "station_cd": "1752",
      "station_nm_jpn": "テヤミ",
      "station_nm_eng": "Daeyami",
      "station_nm": "대야미",
      "fr_code": "446",
      "lat": 37.328467,
      "lng": 126.917332
    },
    {
      "line_num": "04호선",
      "station_nm_chn": "半月",
      "station_cd": "1753",
      "station_nm_jpn": "パヌォル",
      "station_nm_eng": "Banwol",
      "station_nm": "반월",
      "fr_code": "447",
      "lat": 37.312212,
      "lng": 126.903524
    },
    {
      "line_num": "04호선",
      "station_nm_chn": "常绿树",
      "station_cd": "1754",
      "station_nm_jpn": "サンロッス",
      "station_nm_eng": "Sangnoksu",
      "station_nm": "상록수",
      "fr_code": "448",
      "lat": 37.302795,
      "lng": 126.866489
    },
    {
      "line_num": "04호선",
      "station_nm_chn": "汉阳大学",
      "station_cd": "1755",
      "station_nm_jpn": "ハンデアプ",
      "station_nm_eng": "Hanyang Univ. at Ansan",
      "station_nm": "한대앞",
      "fr_code": "449",
      "lat": 37.309689,
      "lng": 126.85344
    },
    {
      "line_num": "04호선",
      "station_nm_chn": "中央",
      "station_cd": "1756",
      "station_nm_jpn": "チュンアン",
      "station_nm_eng": "Jungang",
      "station_nm": "중앙",
      "fr_code": "450",
      "lat": 37.315941,
      "lng": 126.838573
    },
    {
      "line_num": "04호선",
      "station_nm_chn": "新龙山",
      "station_cd": "0429",
      "station_nm_jpn": "シニョンサン",
      "station_nm_eng": "Sinyongsan",
      "station_nm": "신용산",
      "fr_code": "429",
      "lat": 37.52917,
      "lng": 126.967894
    },
    {
      "line_num": "04호선",
      "station_nm_chn": "二村",
      "station_cd": "0430",
      "station_nm_jpn": "イチョン",
      "station_nm_eng": "Ichon",
      "station_nm": "이촌",
      "fr_code": "430",
      "lat": 37.522272,
      "lng": 126.974345
    },
    {
      "line_num": "04호선",
      "station_nm_chn": "铜雀(显忠院)",
      "station_cd": "0431",
      "station_nm_jpn": "トンジャク",
      "station_nm_eng": "Dongjak",
      "station_nm": "동작",
      "fr_code": "431",
      "lat": 37.502971,
      "lng": 126.979306
    },
    {
      "line_num": "04호선",
      "station_nm_chn": "仁德院",
      "station_cd": "1455",
      "station_nm_jpn": "インドグォン",
      "station_nm_eng": "Indeogwon",
      "station_nm": "인덕원",
      "fr_code": "440",
      "lat": 37.401553,
      "lng": 126.976715
    },
    {
      "line_num": "04호선",
      "station_nm_chn": "坪村",
      "station_cd": "1456",
      "station_nm_jpn": "ピョンチョン",
      "station_nm_eng": "Pyeongchon",
      "station_nm": "평촌",
      "fr_code": "441",
      "lat": 37.394287,
      "lng": 126.963883
    },
    {
      "line_num": "04호선",
      "station_nm_chn": "凡溪",
      "station_cd": "1457",
      "station_nm_jpn": "ポムゲ",
      "station_nm_eng": "Beomgye",
      "station_nm": "범계",
      "fr_code": "442",
      "lat": 37.389793,
      "lng": 126.950806
    },
    {
      "line_num": "04호선",
      "station_nm_chn": "衿井",
      "station_cd": "1458",
      "station_nm_jpn": "クムジョン",
      "station_nm_eng": "Geumjeong",
      "station_nm": "금정",
      "fr_code": "443",
      "lat": 37.372221,
      "lng": 126.943429
    },
    {
      "line_num": "04호선",
      "station_nm_chn": "正往",
      "station_cd": "1761",
      "station_nm_jpn": "チョンワン",
      "station_nm_eng": "Jeongwang",
      "station_nm": "정왕",
      "fr_code": "455",
      "lat": 37.351735,
      "lng": 126.742989
    },
    {
      "line_num": "04호선",
      "station_nm_chn": "乌耳岛",
      "station_cd": "1762",
      "station_nm_jpn": "オイド",
      "station_nm_eng": "Oido",
      "station_nm": "오이도",
      "fr_code": "456",
      "lat": 37.362357,
      "lng": 126.738714
    },
    {
      "line_num": "05호선",
      "station_nm_chn": "曲桥",
      "station_cd": "2551",
      "station_nm_jpn": "クブンダリ",
      "station_nm_eng": "Gubeundari",
      "station_nm": "굽은다리",
      "fr_code": "550",
      "lat": 37.545477,
      "lng": 127.142853
    },
    {
      "line_num": "05호선",
      "station_nm_chn": "新亭",
      "station_cd": "2520",
      "station_nm_jpn": "シンジョン",
      "station_nm_eng": "Sinjeong",
      "station_nm": "신정",
      "fr_code": "519",
      "lat": 37.524997,
      "lng": 126.856191
    },
    {
      "line_num": "05호선",
      "station_nm_chn": "君子",
      "station_cd": "2545",
      "station_nm_jpn": "クンジャ",
      "station_nm_eng": "Gunja",
      "station_nm": "군자",
      "fr_code": "544",
      "lat": 37.557121,
      "lng": 127.079542
    },
    {
      "line_num": "05호선",
      "station_nm_chn": "钟路三街",
      "station_cd": "2535",
      "station_nm_jpn": "チョンノサムガ",
      "station_nm_eng": "Jongno 3(sam)-ga",
      "station_nm": "종로3가",
      "fr_code": "534",
      "lat": 37.571607,
      "lng": 126.991806
    },
    {
      "line_num": "05호선",
      "station_nm_chn": "吉洞",
      "station_cd": "2550",
      "station_nm_jpn": "キルトン",
      "station_nm_eng": "Gil-dong",
      "station_nm": "길동",
      "fr_code": "549",
      "lat": 37.537801,
      "lng": 127.140004
    },
    {
      "line_num": "05호선",
      "station_nm_chn": "江东",
      "station_cd": "2549",
      "station_nm_jpn": "カンドン",
      "station_nm_eng": "Gangdong",
      "station_nm": "강동",
      "fr_code": "548",
      "lat": 37.535804,
      "lng": 127.132481
    },
    {
      "line_num": "05호선",
      "station_nm_chn": "千戶",
      "station_cd": "2548",
      "station_nm_jpn": "チョンホ",
      "station_nm_eng": "Cheonho",
      "station_nm": "천호",
      "fr_code": "547",
      "lat": 37.538397,
      "lng": 127.123572
    },
    {
      "line_num": "05호선",
      "station_nm_chn": "广渡口",
      "station_cd": "2547",
      "station_nm_jpn": "クァンナル",
      "station_nm_eng": "Gwangnaru",
      "station_nm": "광나루",
      "fr_code": "546",
      "lat": 37.545303,
      "lng": 127.10357
    },
    {
      "line_num": "05호선",
      "station_nm_chn": "青丘",
      "station_cd": "2538",
      "station_nm_jpn": "チョング",
      "station_nm_eng": "Cheonggu",
      "station_nm": "청구",
      "fr_code": "537",
      "lat": 37.560245,
      "lng": 127.013828
    },
    {
      "line_num": "05호선",
      "station_nm_chn": "东大门历史文化公园",
      "station_cd": "2537",
      "station_nm_jpn": "トンデムンヨクサムンファゴンウォン",
      "station_nm_eng": "Dongdaemun History  Culture Park",
      "station_nm": "동대문역사문화공원",
      "fr_code": "536",
      "lat": 37.565138,
      "lng": 127.007896
    },
    {
      "line_num": "05호선",
      "station_nm_chn": "光化门",
      "station_cd": "2534",
      "station_nm_jpn": "クァンファムン",
      "station_nm_eng": "Gwanghwamun",
      "station_nm": "광화문",
      "fr_code": "533",
      "lat": 37.571026,
      "lng": 126.976669
    },
    {
      "line_num": "05호선",
      "station_nm_chn": "西大门",
      "station_cd": "2533",
      "station_nm_jpn": "ソデムン",
      "station_nm_eng": "Seodaemun",
      "station_nm": "서대문",
      "fr_code": "532",
      "lat": 37.565773,
      "lng": 126.966641
    },
    {
      "line_num": "05호선",
      "station_nm_chn": "忠正路",
      "station_cd": "2532",
      "station_nm_jpn": "チュンジョンノ",
      "station_nm_eng": "Chungjeongno",
      "station_nm": "충정로",
      "fr_code": "531",
      "lat": 37.559973,
      "lng": 126.963672
    },
    {
      "line_num": "05호선",
      "station_nm_chn": "永登浦区厅",
      "station_cd": "2524",
      "station_nm_jpn": "ヨンドゥンポグチョン",
      "station_nm_eng": "Yeongdeungpo-gu Office",
      "station_nm": "영등포구청",
      "fr_code": "523",
      "lat": 37.52497,
      "lng": 126.895951
    },
    {
      "line_num": "05호선",
      "station_nm_chn": "新吉",
      "station_cd": "2526",
      "station_nm_jpn": "シンギル",
      "station_nm_eng": "Singil",
      "station_nm": "신길",
      "fr_code": "525",
      "lat": 37.517122,
      "lng": 126.917169
    },
    {
      "line_num": "05호선",
      "station_nm_chn": "峨嵯山",
      "station_cd": "2546",
      "station_nm_jpn": "アチャサン",
      "station_nm_eng": "Achasan",
      "station_nm": "아차산",
      "fr_code": "545",
      "lat": 37.551691,
      "lng": 127.089761
    },
    {
      "line_num": "05호선",
      "station_nm_chn": "马场",
      "station_cd": "2542",
      "station_nm_jpn": "マジャン",
      "station_nm_eng": "Majang",
      "station_nm": "마장",
      "fr_code": "541",
      "lat": 37.5661,
      "lng": 127.042973
    },
    {
      "line_num": "05호선",
      "station_nm_chn": "傍花",
      "station_cd": "2511",
      "station_nm_jpn": "パンファ",
      "station_nm_eng": "Banghwa",
      "station_nm": "방화",
      "fr_code": "510",
      "lat": 37.577446,
      "lng": 126.812741
    },
    {
      "line_num": "05호선",
      "station_nm_chn": "麻谷",
      "station_cd": "2515",
      "station_nm_jpn": "マゴク",
      "station_nm_eng": "Magok",
      "station_nm": "마곡",
      "fr_code": "514",
      "lat": 37.560183,
      "lng": 126.825448
    },
    {
      "line_num": "05호선",
      "station_nm_chn": "钵山",
      "station_cd": "2516",
      "station_nm_jpn": "パルサン",
      "station_nm_eng": "Balsan",
      "station_nm": "발산",
      "fr_code": "515",
      "lat": 37.558598,
      "lng": 126.837668
    },
    {
      "line_num": "05호선",
      "station_nm_chn": "雨装山",
      "station_cd": "2517",
      "station_nm_jpn": "ウジャンサン",
      "station_nm_eng": "Ujangsan",
      "station_nm": "우장산",
      "fr_code": "516",
      "lat": 37.548768,
      "lng": 126.836318
    },
    {
      "line_num": "05호선",
      "station_nm_chn": "喜鹊山",
      "station_cd": "2519",
      "station_nm_jpn": "カチサン",
      "station_nm_eng": "Kkachisan",
      "station_nm": "까치산",
      "fr_code": "518",
      "lat": 37.531768,
      "lng": 126.846683
    },
    {
      "line_num": "05호선",
      "station_nm_chn": "巨余",
      "station_cd": "2560",
      "station_nm_jpn": "コヨ",
      "station_nm_eng": "Geoyeo",
      "station_nm": "거여",
      "fr_code": "P554",
      "lat": 37.493105,
      "lng": 127.14415
    },
    {
      "line_num": "05호선",
      "station_nm_chn": "新金湖",
      "station_cd": "2539",
      "station_nm_jpn": "シングムホ",
      "station_nm_eng": "Singeumho",
      "station_nm": "신금호",
      "fr_code": "538",
      "lat": 37.554548,
      "lng": 127.020331
    },
    {
      "line_num": "05호선",
      "station_nm_chn": "马川",
      "station_cd": "2561",
      "station_nm_jpn": "マチョン",
      "station_nm_eng": "Macheon",
      "station_nm": "마천",
      "fr_code": "P555",
      "lat": 37.49499,
      "lng": 127.152781
    },
    {
      "line_num": "05호선",
      "station_nm_chn": "往十里",
      "station_cd": "2541",
      "station_nm_jpn": "ワンシムニ",
      "station_nm_eng": "Wangsimni",
      "station_nm": "왕십리",
      "fr_code": "540",
      "lat": 37.561533,
      "lng": 127.037732
    },
    {
      "line_num": "05호선",
      "station_nm_chn": "杏堂",
      "station_cd": "2540",
      "station_nm_jpn": "ヘンダン",
      "station_nm_eng": "Haengdang",
      "station_nm": "행당",
      "fr_code": "539",
      "lat": 37.557322,
      "lng": 127.029476
    },
    {
      "line_num": "05호선",
      "station_nm_chn": "禾谷",
      "station_cd": "2518",
      "station_nm_jpn": "ファゴク",
      "station_nm_eng": "Hwagok",
      "station_nm": "화곡",
      "fr_code": "517",
      "lat": 37.541513,
      "lng": 126.840461
    },
    {
      "line_num": "05호선",
      "station_nm_chn": "汝矣岛",
      "station_cd": "2527",
      "station_nm_jpn": "ヨイド",
      "station_nm_eng": "Yeouido",
      "station_nm": "여의도",
      "fr_code": "526",
      "lat": 37.521624,
      "lng": 126.924191
    },
    {
      "line_num": "05호선",
      "station_nm_chn": "麻浦",
      "station_cd": "2529",
      "station_nm_jpn": "マポ",
      "station_nm_eng": "Mapo",
      "station_nm": "마포",
      "fr_code": "528",
      "lat": 37.539574,
      "lng": 126.945932
    },
    {
      "line_num": "05호선",
      "station_nm_chn": "永登浦市场",
      "station_cd": "2525",
      "station_nm_jpn": "ヨンドゥンポシジャン",
      "station_nm_eng": "Yeongdeungpo Market",
      "station_nm": "영등포시장",
      "fr_code": "524",
      "lat": 37.522669,
      "lng": 126.905139
    },
    {
      "line_num": "05호선",
      "station_nm_chn": "开笼",
      "station_cd": "2559",
      "station_nm_jpn": "ケロン",
      "station_nm_eng": "Gaerong",
      "station_nm": "개롱",
      "fr_code": "P553",
      "lat": 37.498079,
      "lng": 127.13482
    },
    {
      "line_num": "05호선",
      "station_nm_chn": "梧琴",
      "station_cd": "2558",
      "station_nm_jpn": "オグム",
      "station_nm_eng": "Ogeum",
      "station_nm": "오금",
      "fr_code": "P552",
      "lat": 37.502162,
      "lng": 127.128111
    },
    {
      "line_num": "05호선",
      "station_nm_chn": "汝矣渡口",
      "station_cd": "2528",
      "station_nm_jpn": "ヨイナル",
      "station_nm_eng": "Yeouinaru",
      "station_nm": "여의나루",
      "fr_code": "527",
      "lat": 37.527098,
      "lng": 126.932901
    },
    {
      "line_num": "05호선",
      "station_nm_chn": "芳荑",
      "station_cd": "2557",
      "station_nm_jpn": "パンイ",
      "station_nm_eng": "Bangi",
      "station_nm": "방이",
      "fr_code": "P551",
      "lat": 37.508857,
      "lng": 127.126133
    },
    {
      "line_num": "05호선",
      "station_nm_chn": "踏十里",
      "station_cd": "2543",
      "station_nm_jpn": "タプシムニ",
      "station_nm_eng": "Dapsimni",
      "station_nm": "답십리",
      "fr_code": "542",
      "lat": 37.566747,
      "lng": 127.052704
    },
    {
      "line_num": "05호선",
      "station_nm_chn": "奥林匹克公园",
      "station_cd": "2556",
      "station_nm_jpn": "オリンピックゴンウォン",
      "station_nm_eng": "Olympic Park",
      "station_nm": "올림픽공원",
      "fr_code": "P550",
      "lat": 37.516078,
      "lng": 127.130848
    },
    {
      "line_num": "05호선",
      "station_nm_chn": "遁村洞",
      "station_cd": "2555",
      "station_nm_jpn": "トゥンチョンドン",
      "station_nm_eng": "Dunchon-dong",
      "station_nm": "둔촌동",
      "fr_code": "P549",
      "lat": 37.527788,
      "lng": 127.136248
    },
    {
      "line_num": "05호선",
      "station_nm_chn": "杨坪",
      "station_cd": "2523",
      "station_nm_jpn": "ヤンピョン",
      "station_nm_eng": "Yangpyeong",
      "station_nm": "양평",
      "fr_code": "522",
      "lat": 37.525648,
      "lng": 126.885778
    },
    {
      "line_num": "05호선",
      "station_nm_chn": "梧木桥",
      "station_cd": "2522",
      "station_nm_jpn": "オモッキョ",
      "station_nm_eng": "Omokgyo",
      "station_nm": "오목교",
      "fr_code": "521",
      "lat": 37.524496,
      "lng": 126.875181
    },
    {
      "line_num": "05호선",
      "station_nm_chn": "木洞",
      "station_cd": "2521",
      "station_nm_jpn": "モクトン",
      "station_nm_eng": "Mok-dong",
      "station_nm": "목동",
      "fr_code": "520",
      "lat": 37.526065,
      "lng": 126.864931
    },
    {
      "line_num": "05호선",
      "station_nm_chn": "乙支路四街",
      "station_cd": "2536",
      "station_nm_jpn": "ウルチロサガ",
      "station_nm_eng": "Euljiro 4(sa)-ga",
      "station_nm": "을지로4가",
      "fr_code": "535",
      "lat": 37.566941,
      "lng": 126.998079
    },
    {
      "line_num": "05호선",
      "station_nm_chn": "孔德",
      "station_cd": "2530",
      "station_nm_jpn": "コンドク",
      "station_nm_eng": "Gongdeok",
      "station_nm": "공덕",
      "fr_code": "529",
      "lat": 37.544018,
      "lng": 126.951592
    },
    {
      "line_num": "05호선",
      "station_nm_chn": "儿岭",
      "station_cd": "2531",
      "station_nm_jpn": "エオゲ",
      "station_nm_eng": "Aeogae",
      "station_nm": "애오개",
      "fr_code": "530",
      "lat": 37.553736,
      "lng": 126.95682
    },
    {
      "line_num": "05호선",
      "station_nm_chn": "开花山",
      "station_cd": "2512",
      "station_nm_jpn": "ケファサン",
      "station_nm_eng": "Gaehwasan",
      "station_nm": "개화산",
      "fr_code": "511",
      "lat": 37.572399,
      "lng": 126.806171
    },
    {
      "line_num": "05호선",
      "station_nm_chn": "金浦机场",
      "station_cd": "2513",
      "station_nm_jpn": "キンポゴンハン",
      "station_nm_eng": "Gimpo Intl. Airport",
      "station_nm": "김포공항",
      "fr_code": "512",
      "lat": 37.562434,
      "lng": 126.801058
    },
    {
      "line_num": "05호선",
      "station_nm_chn": "松亭",
      "station_cd": "2514",
      "station_nm_jpn": "ソンジョン",
      "station_nm_eng": "Songjeong",
      "station_nm": "송정",
      "fr_code": "513",
      "lat": 37.561184,
      "lng": 126.811973
    },
    {
      "line_num": "05호선",
      "station_nm_chn": "长汉坪",
      "station_cd": "2544",
      "station_nm_jpn": "チャンハンピョン",
      "station_nm_eng": "Janghanpyeong",
      "station_nm": "장한평",
      "fr_code": "543",
      "lat": 37.56144,
      "lng": 127.064623
    },
    {
      "line_num": "05호선",
      "station_nm_chn": "上一洞",
      "station_cd": "2554",
      "station_nm_jpn": "サンイルトン",
      "station_nm_eng": "Sangil-dong",
      "station_nm": "상일동",
      "fr_code": "553",
      "lat": 37.556712,
      "lng": 127.166417
    },
    {
      "line_num": "05호선",
      "station_nm_chn": "高德",
      "station_cd": "2553",
      "station_nm_jpn": "コドク",
      "station_nm_eng": "Godeok",
      "station_nm": "고덕",
      "fr_code": "552",
      "lat": 37.555004,
      "lng": 127.154151
    },
    {
      "line_num": "05호선",
      "station_nm_chn": "明逸",
      "station_cd": "2552",
      "station_nm_jpn": "ミョンイル",
      "station_nm_eng": "Myeongil",
      "station_nm": "명일",
      "fr_code": "551",
      "lat": 37.55137,
      "lng": 127.143999
    },
    {
      "line_num": "06호선",
      "station_nm_chn": "梨泰院",
      "station_cd": "2631",
      "station_nm_jpn": "イテウォン",
      "station_nm_eng": "Itaewon",
      "station_nm": "이태원",
      "fr_code": "630",
      "lat": 37.534488,
      "lng": 126.994302
    },
    {
      "line_num": "06호선",
      "station_nm_chn": "龟山",
      "station_cd": "2616",
      "station_nm_jpn": "クサン",
      "station_nm_eng": "Gusan",
      "station_nm": "구산",
      "fr_code": "615",
      "lat": 37.611377,
      "lng": 126.91727
    },
    {
      "line_num": "06호선",
      "station_nm_chn": "赛折",
      "station_cd": "2617",
      "station_nm_jpn": "セジョル",
      "station_nm_eng": "Saejeol",
      "station_nm": "새절",
      "fr_code": "616",
      "lat": 37.591148,
      "lng": 126.913629
    },
    {
      "line_num": "06호선",
      "station_nm_chn": "瓮岩",
      "station_cd": "2614",
      "station_nm_jpn": "トッパウィ",
      "station_nm_eng": "Dokbawi",
      "station_nm": "독바위",
      "fr_code": "613",
      "lat": 37.618456,
      "lng": 126.933031
    },
    {
      "line_num": "06호선",
      "station_nm_chn": "佛光",
      "station_cd": "2613",
      "station_nm_jpn": "プルグァン",
      "station_nm_eng": "Bulgwang",
      "station_nm": "불광",
      "fr_code": "612",
      "lat": 37.610469,
      "lng": 126.929887
    },
    {
      "line_num": "06호선",
      "station_nm_chn": "合井",
      "station_cd": "2623",
      "station_nm_jpn": "ハプチョン",
      "station_nm_eng": "Hapjeong",
      "station_nm": "합정",
      "fr_code": "622",
      "lat": 37.549463,
      "lng": 126.913739
    },
    {
      "line_num": "06호선",
      "station_nm_chn": "鹰岩",
      "station_cd": "2611",
      "station_nm_jpn": "ウンアム",
      "station_nm_eng": "Eungam",
      "station_nm": "응암",
      "fr_code": "610",
      "lat": 37.598605,
      "lng": 126.915577
    },
    {
      "line_num": "06호선",
      "station_nm_chn": "昌信",
      "station_cd": "2638",
      "station_nm_jpn": "チャンシン",
      "station_nm_eng": "Changsin",
      "station_nm": "창신",
      "fr_code": "637",
      "lat": 37.579661,
      "lng": 127.015241
    },
    {
      "line_num": "06호선",
      "station_nm_chn": "普门",
      "station_cd": "2639",
      "station_nm_jpn": "ポムン",
      "station_nm_eng": "Bomun",
      "station_nm": "보문",
      "fr_code": "638",
      "lat": 37.585286,
      "lng": 127.019381
    },
    {
      "line_num": "06호선",
      "station_nm_chn": "安岩",
      "station_cd": "2640",
      "station_nm_jpn": "アナム",
      "station_nm_eng": "Anam",
      "station_nm": "안암",
      "fr_code": "639",
      "lat": 37.586272,
      "lng": 127.029005
    },
    {
      "line_num": "06호선",
      "station_nm_chn": "驿村",
      "station_cd": "2612",
      "station_nm_jpn": "ヨクチョン",
      "station_nm_eng": "Yeokchon",
      "station_nm": "역촌",
      "fr_code": "611",
      "lat": 37.606021,
      "lng": 126.922744
    },
    {
      "line_num": "06호선",
      "station_nm_chn": "孔德",
      "station_cd": "2627",
      "station_nm_jpn": "コンドク",
      "station_nm_eng": "Gongdeok",
      "station_nm": "공덕",
      "fr_code": "626",
      "lat": 37.544018,
      "lng": 126.951592
    },
    {
      "line_num": "06호선",
      "station_nm_chn": "大兴",
      "station_cd": "2626",
      "station_nm_jpn": "テフン",
      "station_nm_eng": "Daeheung",
      "station_nm": "대흥",
      "fr_code": "625",
      "lat": 37.547771,
      "lng": 126.942069
    },
    {
      "line_num": "06호선",
      "station_nm_chn": "麻浦区厅",
      "station_cd": "2621",
      "station_nm_jpn": "マポグチョン",
      "station_nm_eng": "Mapo-gu Office",
      "station_nm": "마포구청",
      "fr_code": "620",
      "lat": 37.563515,
      "lng": 126.903343
    },
    {
      "line_num": "06호선",
      "station_nm_chn": "高丽大学",
      "station_cd": "2641",
      "station_nm_jpn": "コリョデ",
      "station_nm_eng": "Korea Univ.",
      "station_nm": "고려대",
      "fr_code": "640",
      "lat": 37.590508,
      "lng": 127.036296
    },
    {
      "line_num": "06호선",
      "station_nm_chn": "月谷",
      "station_cd": "2642",
      "station_nm_jpn": "ウォルゴク",
      "station_nm_eng": "Wolgok",
      "station_nm": "월곡",
      "fr_code": "641",
      "lat": 37.601948,
      "lng": 127.041518
    },
    {
      "line_num": "06호선",
      "station_nm_chn": "花郞台",
      "station_cd": "2647",
      "station_nm_jpn": "ファランデ",
      "station_nm_eng": "Hwarangdae",
      "station_nm": "화랑대",
      "fr_code": "646",
      "lat": 37.620064,
      "lng": 127.084689
    },
    {
      "line_num": "06호선",
      "station_nm_chn": "烽火山",
      "station_cd": "2648",
      "station_nm_jpn": "ポンファサン",
      "station_nm_eng": "Bonghwasan",
      "station_nm": "봉화산",
      "fr_code": "647",
      "lat": 37.617283,
      "lng": 127.091401
    },
    {
      "line_num": "06호선",
      "station_nm_chn": "新內",
      "station_cd": "2649",
      "station_nm_jpn": "シンネ",
      "station_nm_eng": "Sinnae",
      "station_nm": "신내",
      "fr_code": "648",
      "lat": 37.612887,
      "lng": 127.103218
    },
    {
      "line_num": "06호선",
      "station_nm_chn": "泰陵",
      "station_cd": "2646",
      "station_nm_jpn": "テルンイック",
      "station_nm_eng": "Taereung",
      "station_nm": "태릉입구",
      "fr_code": "645",
      "lat": 37.617983,
      "lng": 127.07512
    },
    {
      "line_num": "06호선",
      "station_nm_chn": "石溪",
      "station_cd": "2645",
      "station_nm_jpn": "ソッケ",
      "station_nm_eng": "Seokgye",
      "station_nm": "석계",
      "fr_code": "644",
      "lat": 37.614805,
      "lng": 127.065851
    },
    {
      "line_num": "06호선",
      "station_nm_chn": "药水",
      "station_cd": "2634",
      "station_nm_jpn": "ヤッス",
      "station_nm_eng": "Yaksu",
      "station_nm": "약수",
      "fr_code": "633",
      "lat": 37.55434,
      "lng": 127.010655
    },
    {
      "line_num": "06호선",
      "station_nm_chn": "青丘",
      "station_cd": "2635",
      "station_nm_jpn": "チョング",
      "station_nm_eng": "Cheonggu",
      "station_nm": "청구",
      "fr_code": "634",
      "lat": 37.560245,
      "lng": 127.013828
    },
    {
      "line_num": "06호선",
      "station_nm_chn": "新堂",
      "station_cd": "2636",
      "station_nm_jpn": "シンダン",
      "station_nm_eng": "Sindang",
      "station_nm": "신당",
      "fr_code": "635",
      "lat": 37.565972,
      "lng": 127.01782
    },
    {
      "line_num": "06호선",
      "station_nm_chn": "东庙",
      "station_cd": "2637",
      "station_nm_jpn": "トンミョアプ",
      "station_nm_eng": "Dongmyo",
      "station_nm": "동묘앞",
      "fr_code": "636",
      "lat": 37.572627,
      "lng": 127.016429
    },
    {
      "line_num": "06호선",
      "station_nm_chn": "波堤岭",
      "station_cd": "2633",
      "station_nm_jpn": "ポティゴゲ",
      "station_nm_eng": "Beotigogae",
      "station_nm": "버티고개",
      "fr_code": "632",
      "lat": 37.548013,
      "lng": 127.007055
    },
    {
      "line_num": "06호선",
      "station_nm_chn": "汉江镇",
      "station_cd": "2632",
      "station_nm_jpn": "ハンガンジン",
      "station_nm_eng": "Hangangjin",
      "station_nm": "한강진",
      "fr_code": "631",
      "lat": 37.539631,
      "lng": 127.001725
    },
    {
      "line_num": "06호선",
      "station_nm_chn": "延新川",
      "station_cd": "2615",
      "station_nm_jpn": "ヨンシンネ",
      "station_nm_eng": "Yeonsinnae",
      "station_nm": "연신내",
      "fr_code": "614",
      "lat": 37.619001,
      "lng": 126.921008
    },
    {
      "line_num": "06호선",
      "station_nm_chn": "绿莎坪",
      "station_cd": "2630",
      "station_nm_jpn": "ノッサピョン",
      "station_nm_eng": "Noksapyeong",
      "station_nm": "녹사평",
      "fr_code": "629",
      "lat": 37.534675,
      "lng": 126.986695
    },
    {
      "line_num": "06호선",
      "station_nm_chn": "三角地",
      "station_cd": "2629",
      "station_nm_jpn": "サムガクチ",
      "station_nm_eng": "Samgakji",
      "station_nm": "삼각지",
      "fr_code": "628",
      "lat": 37.534777,
      "lng": 126.97311
    },
    {
      "line_num": "06호선",
      "station_nm_chn": "孝昌公园",
      "station_cd": "2628",
      "station_nm_jpn": "ヒョチャンゴンウォンアプ",
      "station_nm_eng": "Hyochang park",
      "station_nm": "효창공원앞",
      "fr_code": "627",
      "lat": 37.539261,
      "lng": 126.961351
    },
    {
      "line_num": "06호선",
      "station_nm_chn": "广兴仓",
      "station_cd": "2625",
      "station_nm_jpn": "クァンフンチャン",
      "station_nm_eng": "Gwangheungchang",
      "station_nm": "광흥창",
      "fr_code": "624",
      "lat": 37.547456,
      "lng": 126.931993
    },
    {
      "line_num": "06호선",
      "station_nm_chn": "上水",
      "station_cd": "2624",
      "station_nm_jpn": "サンス",
      "station_nm_eng": "Sangsu",
      "station_nm": "상수",
      "fr_code": "623",
      "lat": 37.547716,
      "lng": 126.922852
    },
    {
      "line_num": "06호선",
      "station_nm_chn": "望远",
      "station_cd": "2622",
      "station_nm_jpn": "マンウォン",
      "station_nm_eng": "Mangwon",
      "station_nm": "망원",
      "fr_code": "621",
      "lat": 37.556094,
      "lng": 126.910052
    },
    {
      "line_num": "06호선",
      "station_nm_chn": "世界杯体育场",
      "station_cd": "2620",
      "station_nm_jpn": "ワールドカップ・キョンギジャン",
      "station_nm_eng": "World Cup Stadium",
      "station_nm": "월드컵경기장",
      "fr_code": "619",
      "lat": 37.569532,
      "lng": 126.899298
    },
    {
      "line_num": "06호선",
      "station_nm_chn": "数码媒体城",
      "station_cd": "2619",
      "station_nm_jpn": "デジタルメディアシティ",
      "station_nm_eng": "Digital Media City",
      "station_nm": "디지털미디어시티",
      "fr_code": "618",
      "lat": 37.576646,
      "lng": 126.900984
    },
    {
      "line_num": "06호선",
      "station_nm_chn": "缯山",
      "station_cd": "2618",
      "station_nm_jpn": "チュンサン",
      "station_nm_eng": "Jeungsan",
      "station_nm": "증산",
      "fr_code": "617",
      "lat": 37.583876,
      "lng": 126.909645
    },
    {
      "line_num": "06호선",
      "station_nm_chn": "石串",
      "station_cd": "2644",
      "station_nm_jpn": "トルゴジ",
      "station_nm_eng": "Dolgoji",
      "station_nm": "돌곶이",
      "fr_code": "643",
      "lat": 37.610537,
      "lng": 127.056431
    },
    {
      "line_num": "06호선",
      "station_nm_chn": "上月谷",
      "station_cd": "2643",
      "station_nm_jpn": "サンウォルゴク",
      "station_nm_eng": "Sangwolgok",
      "station_nm": "상월곡",
      "fr_code": "642",
      "lat": 37.606377,
      "lng": 127.048491
    },
    {
      "line_num": "07호선",
      "station_nm_chn": "四佳亭",
      "station_cd": "2724",
      "station_nm_jpn": "サガジョン",
      "station_nm_eng": "Sagajeong",
      "station_nm": "사가정",
      "fr_code": "722",
      "lat": 37.580894,
      "lng": 127.088478
    },
    {
      "line_num": "07호선",
      "station_nm_chn": "波拉美",
      "station_cd": "2744",
      "station_nm_jpn": "ポラメ",
      "station_nm_eng": "Boramae",
      "station_nm": "보라매",
      "fr_code": "742",
      "lat": 37.499872,
      "lng": 126.920428
    },
    {
      "line_num": "07호선",
      "station_nm_chn": "新大方丁字路口",
      "station_cd": "2743",
      "station_nm_jpn": "シンデバンサムゴリ",
      "station_nm_eng": "Sindaebangsamgeori",
      "station_nm": "신대방삼거리",
      "fr_code": "741",
      "lat": 37.499701,
      "lng": 126.928276
    },
    {
      "line_num": "07호선",
      "station_nm_chn": "內方",
      "station_cd": "2737",
      "station_nm_jpn": "ネバン",
      "station_nm_eng": "Naebang",
      "station_nm": "내방",
      "fr_code": "735",
      "lat": 37.487618,
      "lng": 126.993513
    },
    {
      "line_num": "07호선",
      "station_nm_chn": "水落山",
      "station_cd": "2713",
      "station_nm_jpn": "スラッサン",
      "station_nm_eng": "Suraksan",
      "station_nm": "수락산",
      "fr_code": "711",
      "lat": 37.67785,
      "lng": 127.055315
    },
    {
      "line_num": "07호선",
      "station_nm_chn": "高速巴士客运站",
      "station_cd": "2736",
      "station_nm_jpn": "コソクターミナル",
      "station_nm_eng": "Express Bus Terminal",
      "station_nm": "고속터미널",
      "fr_code": "734",
      "lat": 37.50481,
      "lng": 127.004943
    },
    {
      "line_num": "07호선",
      "station_nm_chn": "论岘",
      "station_cd": "2734",
      "station_nm_jpn": "ノンヒョン",
      "station_nm_eng": "Nonhyeon",
      "station_nm": "논현",
      "fr_code": "732",
      "lat": 37.511093,
      "lng": 127.021415
    },
    {
      "line_num": "07호선",
      "station_nm_chn": "南城",
      "station_cd": "2739",
      "station_nm_jpn": "ナムソン",
      "station_nm_eng": "Namseong",
      "station_nm": "남성",
      "fr_code": "737",
      "lat": 37.484596,
      "lng": 126.971251
    },
    {
      "line_num": "07호선",
      "station_nm_chn": "墨谷",
      "station_cd": "2720",
      "station_nm_jpn": "モッコル",
      "station_nm_eng": "Meokgol",
      "station_nm": "먹골",
      "fr_code": "718",
      "lat": 37.610637,
      "lng": 127.077725
    },
    {
      "line_num": "07호선",
      "station_nm_chn": "长丞拜基",
      "station_cd": "2742",
      "station_nm_jpn": "チャンスンベギ",
      "station_nm_eng": "Jangseungbaegi",
      "station_nm": "장승배기",
      "fr_code": "740",
      "lat": 37.504898,
      "lng": 126.93915
    },
    {
      "line_num": "07호선",
      "station_nm_chn": "上道",
      "station_cd": "2741",
      "station_nm_jpn": "サンド",
      "station_nm_eng": "Sangdo",
      "station_nm": "상도",
      "fr_code": "739",
      "lat": 37.502834,
      "lng": 126.94791
    },
    {
      "line_num": "07호선",
      "station_nm_chn": "崇实大学(赛毗岭)",
      "station_cd": "2740",
      "station_nm_jpn": "スンシルデイック",
      "station_nm_eng": "Soongsil Univ.",
      "station_nm": "숭실대입구",
      "fr_code": "738",
      "lat": 37.496029,
      "lng": 126.953822
    },
    {
      "line_num": "07호선",
      "station_nm_chn": "南九老",
      "station_cd": "2747",
      "station_nm_jpn": "ナムグロ",
      "station_nm_eng": "Namguro",
      "station_nm": "남구로",
      "fr_code": "745",
      "lat": 37.486056,
      "lng": 126.887249
    },
    {
      "line_num": "07호선",
      "station_nm_chn": "铁山",
      "station_cd": "2749",
      "station_nm_jpn": "チョルサン",
      "station_nm_eng": "Cheolsan",
      "station_nm": "철산",
      "fr_code": "747",
      "lat": 37.47605,
      "lng": 126.867911
    },
    {
      "line_num": "07호선",
      "station_nm_chn": "喜鹊屋",
      "station_cd": "3753",
      "station_nm_jpn": "カチウル",
      "station_nm_eng": "Kkachiul",
      "station_nm": "까치울",
      "fr_code": "751",
      "lat": 37.506207,
      "lng": 126.810939
    },
    {
      "line_num": "07호선",
      "station_nm_chn": "儿童大公园",
      "station_cd": "2728",
      "station_nm_jpn": "オリニ・テゴンウォン",
      "station_nm_eng": "Children's Grand Park",
      "station_nm": "어린이대공원",
      "fr_code": "726",
      "lat": 37.548014,
      "lng": 127.074658
    },
    {
      "line_num": "07호선",
      "station_nm_chn": "加山数码园区",
      "station_cd": "2748",
      "station_nm_jpn": "カサン・デジタルダンジ",
      "station_nm_eng": "Gasan Digital Complex",
      "station_nm": "가산디지털단지",
      "fr_code": "746",
      "lat": 37.481072,
      "lng": 126.882343
    },
    {
      "line_num": "07호선",
      "station_nm_chn": "春衣",
      "station_cd": "3755",
      "station_nm_jpn": "チュニ",
      "station_nm_eng": "Chunui",
      "station_nm": "춘의",
      "fr_code": "753",
      "lat": 37.503663,
      "lng": 126.787036
    },
    {
      "line_num": "07호선",
      "station_nm_chn": "富川综合运动场",
      "station_cd": "3754",
      "station_nm_jpn": "プチョンジョンハブンドンジャン",
      "station_nm_eng": "Bucheon Stadium",
      "station_nm": "부천종합운동장",
      "fr_code": "752",
      "lat": 37.50538,
      "lng": 126.797337
    },
    {
      "line_num": "07호선",
      "station_nm_chn": "芦原",
      "station_cd": "2715",
      "station_nm_jpn": "ノウォン",
      "station_nm_eng": "Nowon",
      "station_nm": "노원",
      "fr_code": "713",
      "lat": 37.655128,
      "lng": 127.061368
    },
    {
      "line_num": "07호선",
      "station_nm_chn": "中溪",
      "station_cd": "2716",
      "station_nm_jpn": "チュンゲ",
      "station_nm_eng": "Junggye",
      "station_nm": "중계",
      "fr_code": "714",
      "lat": 37.644583,
      "lng": 127.064303
    },
    {
      "line_num": "07호선",
      "station_nm_chn": "新中洞",
      "station_cd": "3756",
      "station_nm_jpn": "シンジュンドン",
      "station_nm_eng": "Sinjung-dong",
      "station_nm": "신중동",
      "fr_code": "754",
      "lat": 37.503048,
      "lng": 126.77596
    },
    {
      "line_num": "07호선",
      "station_nm_chn": "建国大学",
      "station_cd": "2729",
      "station_nm_jpn": "コンデイック",
      "station_nm_eng": "Konkuk Univ.",
      "station_nm": "건대입구",
      "fr_code": "727",
      "lat": 37.540693,
      "lng": 127.07023
    },
    {
      "line_num": "07호선",
      "station_nm_chn": "清潭",
      "station_cd": "2731",
      "station_nm_jpn": "チョンダム",
      "station_nm_eng": "Cheongdam",
      "station_nm": "청담",
      "fr_code": "729",
      "lat": 37.519365,
      "lng": 127.05335
    },
    {
      "line_num": "07호선",
      "station_nm_chn": "泰陵",
      "station_cd": "2719",
      "station_nm_jpn": "テルンイック",
      "station_nm_eng": "Taereung",
      "station_nm": "태릉입구",
      "fr_code": "717",
      "lat": 37.617983,
      "lng": 127.07512
    },
    {
      "line_num": "07호선",
      "station_nm_chn": "孔陵",
      "station_cd": "2718",
      "station_nm_jpn": "コンヌン",
      "station_nm_eng": "Gongneung",
      "station_nm": "공릉",
      "fr_code": "716",
      "lat": 37.625742,
      "lng": 127.072896
    },
    {
      "line_num": "07호선",
      "station_nm_chn": "下溪",
      "station_cd": "2717",
      "station_nm_jpn": "ハゲ",
      "station_nm_eng": "Hagye",
      "station_nm": "하계",
      "fr_code": "715",
      "lat": 37.636352,
      "lng": 127.06799
    },
    {
      "line_num": "07호선",
      "station_nm_chn": "富川市厅",
      "station_cd": "3757",
      "station_nm_jpn": "プチョンシチョン",
      "station_nm_eng": "Bucheon City Hall",
      "station_nm": "부천시청",
      "fr_code": "755",
      "lat": 37.504631,
      "lng": 126.763538
    },
    {
      "line_num": "07호선",
      "station_nm_chn": "大林",
      "station_cd": "2746",
      "station_nm_jpn": "テリム",
      "station_nm_eng": "Daerim",
      "station_nm": "대림",
      "fr_code": "744",
      "lat": 37.49297,
      "lng": 126.895801
    },
    {
      "line_num": "07호선",
      "station_nm_chn": "新丰",
      "station_cd": "2745",
      "station_nm_jpn": "シンプン",
      "station_nm_eng": "Sinpung",
      "station_nm": "신풍",
      "fr_code": "743",
      "lat": 37.50008,
      "lng": 126.90993
    },
    {
      "line_num": "07호선",
      "station_nm_chn": "马得",
      "station_cd": "2714",
      "station_nm_jpn": "マドゥル",
      "station_nm_eng": "Madeul",
      "station_nm": "마들",
      "fr_code": "712",
      "lat": 37.66494,
      "lng": 127.057675
    },
    {
      "line_num": "07호선",
      "station_nm_chn": "江南区厅",
      "station_cd": "2732",
      "station_nm_jpn": "カンナムグチョン",
      "station_nm_eng": "Gangnam-gu Office",
      "station_nm": "강남구청",
      "fr_code": "730",
      "lat": 37.517186,
      "lng": 127.04128
    },
    {
      "line_num": "07호선",
      "station_nm_chn": "中和",
      "station_cd": "2721",
      "station_nm_jpn": "チュンファ",
      "station_nm_eng": "Junghwa",
      "station_nm": "중화",
      "fr_code": "719",
      "lat": 37.602545,
      "lng": 127.079264
    },
    {
      "line_num": "07호선",
      "station_nm_chn": "光明十字路口",
      "station_cd": "2750",
      "station_nm_jpn": "クァンミョンサゴリ",
      "station_nm_eng": "Gwangmyeongsageori",
      "station_nm": "광명사거리",
      "fr_code": "748",
      "lat": 37.479252,
      "lng": 126.854876
    },
    {
      "line_num": "07호선",
      "station_nm_chn": "道峰山",
      "station_cd": "2712",
      "station_nm_jpn": "トボンサン",
      "station_nm_eng": "Dobongsan",
      "station_nm": "도봉산",
      "fr_code": "710",
      "lat": 37.689313,
      "lng": 127.046222
    },
    {
      "line_num": "07호선",
      "station_nm_chn": "天旺",
      "station_cd": "2751",
      "station_nm_jpn": "チョヌァン",
      "station_nm_eng": "Cheonwang",
      "station_nm": "천왕",
      "fr_code": "749",
      "lat": 37.486637,
      "lng": 126.838713
    },
    {
      "line_num": "07호선",
      "station_nm_chn": "上凤(市外巴士客运站)",
      "station_cd": "2722",
      "station_nm_jpn": "サンボン",
      "station_nm_eng": "Sangbong",
      "station_nm": "상봉",
      "fr_code": "720",
      "lat": 37.596362,
      "lng": 127.085032
    },
    {
      "line_num": "07호선",
      "station_nm_chn": "鹤洞",
      "station_cd": "2733",
      "station_nm_jpn": "ハクトン",
      "station_nm_eng": "Hak-dong",
      "station_nm": "학동",
      "fr_code": "731",
      "lat": 37.514229,
      "lng": 127.031656
    },
    {
      "line_num": "07호선",
      "station_nm_chn": "上洞",
      "station_cd": "3758",
      "station_nm_jpn": "サンドン",
      "station_nm_eng": "Sang-dong",
      "station_nm": "상동",
      "fr_code": "756",
      "lat": 37.505781,
      "lng": 126.753083
    },
    {
      "line_num": "07호선",
      "station_nm_chn": "三山体育馆",
      "station_cd": "3759",
      "station_nm_jpn": "サムサン・チェユックァン",
      "station_nm_eng": "Samsan Gymnasium",
      "station_nm": "삼산체육관",
      "fr_code": "757",
      "lat": 37.506411,
      "lng": 126.742153
    },
    {
      "line_num": "07호선",
      "station_nm_chn": "掘浦川",
      "station_cd": "3760",
      "station_nm_jpn": "クルポチョン",
      "station_nm_eng": "Gulpocheon",
      "station_nm": "굴포천",
      "fr_code": "758",
      "lat": 37.506997,
      "lng": 126.73128
    },
    {
      "line_num": "07호선",
      "station_nm_chn": "富平区厅",
      "station_cd": "3761",
      "station_nm_jpn": "プピョングチョン",
      "station_nm_eng": "Bupyeong-gu Office",
      "station_nm": "부평구청",
      "fr_code": "759",
      "lat": 37.508336,
      "lng": 126.720548
    },
    {
      "line_num": "07호선",
      "station_nm_chn": "石南",
      "station_cd": "3763",
      "station_nm_jpn": "石南",
      "station_nm_eng": "Seongnam",
      "station_nm": "석남",
      "fr_code": "761",
      "lat": 37.506193,
      "lng": 126.676203
    },
    {
      "line_num": "07호선",
      "station_nm_chn": "面牧",
      "station_cd": "2723",
      "station_nm_jpn": "ミョンモク",
      "station_nm_eng": "Myeonmok",
      "station_nm": "면목",
      "fr_code": "721",
      "lat": 37.588579,
      "lng": 127.087503
    },
    {
      "line_num": "07호선",
      "station_nm_chn": "盘浦",
      "station_cd": "2735",
      "station_nm_jpn": "パンポ",
      "station_nm_eng": "Banpo",
      "station_nm": "반포",
      "fr_code": "733",
      "lat": 37.508178,
      "lng": 127.011727
    },
    {
      "line_num": "07호선",
      "station_nm_chn": "温水",
      "station_cd": "2752",
      "station_nm_jpn": "オンス",
      "station_nm_eng": "Onsu",
      "station_nm": "온수",
      "fr_code": "750",
      "lat": 37.492258,
      "lng": 126.823388
    },
    {
      "line_num": "07호선",
      "station_nm_chn": "龙马山",
      "station_cd": "2725",
      "station_nm_jpn": "ヨンマサン",
      "station_nm_eng": "Yongmasan",
      "station_nm": "용마산",
      "fr_code": "723",
      "lat": 37.573647,
      "lng": 127.086727
    },